ODOM 0.000000 0.000000 0.000000 0 0 0 1294948684.988768 pippo 1294948684.988768
ODOM 0.000000 0.000000 0.000000 0 0 0 1294948685.204022 pippo 1294948685.204022
ODOM 0.000000 0.000000 0.000000 0 0 0 1294948685.310000 pippo 1294948685.310000
ODOM 0.000000 0.000000 0.000000 0 0 0 1294948685.416989 pippo 1294948685.416989
ODOM 0.000000 0.000000 0.000000 0 0 0 1294948685.524042 pippo 1294948685.524042
ODOM 0.000000 0.000000 0.000000 0 0 0 1294948685.630012 pippo 1294948685.630012
ODOM 0.000000 0.000000 0.000000 0 0 0 1294948685.737294 pippo 1294948685.737294
ODOM 0.000000 0.000000 0.000000 0 0 0 1294948685.844146 pippo 1294948685.844146
ODOM 0.000000 0.000000 0.000000 0 0 0 1294948685.951246 pippo 1294948685.951246
ODOM 0.000000 0.000000 0.000000 0 0 0 1294948686.057036 pippo 1294948686.057036
ODOM 0.000000 0.000000 0.000000 0 0 0 1294948686.164023 pippo 1294948686.164023
ODOM 0.000000 0.000000 0.000000 0 0 0 1294948686.271114 pippo 1294948686.271114
ODOM 0.000000 0.000000 0.000000 0 0 0 1294948686.377032 pippo 1294948686.377032
ODOM 0.000000 0.000000 0.000000 0 0 0 1294948686.484021 pippo 1294948686.484021
ODOM 0.000000 0.000000 0.000000 0 0 0 1294948686.591049 pippo 1294948686.591049
ODOM 0.000000 0.000000 0.000000 0 0 0 1294948686.698057 pippo 1294948686.698057
ODOM 0.000000 0.000000 0.000000 0 0 0 1294948686.804151 pippo 1294948686.804151
ODOM 0.000000 0.000000 0.000000 0 0 0 1294948686.911246 pippo 1294948686.911246
ODOM 0.000000 0.000000 0.000000 0 0 0 1294948687.018233 pippo 1294948687.018233
ODOM 0.002000 -0.000000 -0.001259 0 0 0 1294948687.123866 pippo 1294948687.123866
ODOM 0.007000 0.000000 0.000551 0 0 0 1294948687.231234 pippo 1294948687.231234
ODOM 0.016000 0.000000 0.000384 0 0 0 1294948687.338257 pippo 1294948687.338257
ODOM 0.026000 0.001000 -0.000162 0 0 0 1294948687.445019 pippo 1294948687.445019
ODOM 0.033000 0.000000 -0.000478 0 0 0 1294948687.551009 pippo 1294948687.551009
ODOM 0.041000 0.002000 0.003473 0 0 0 1294948687.658419 pippo 1294948687.658419
ODOM 0.050000 0.002000 0.004517 0 0 0 1294948687.765220 pippo 1294948687.765220
ODOM 0.061000 0.000000 -0.002257 0 0 0 1294948687.872114 pippo 1294948687.872114
ODOM 0.073000 0.002000 0.000919 0 0 0 1294948687.978033 pippo 1294948687.978033
ODOM 0.083000 0.001000 0.000029 0 0 0 1294948688.085059 pippo 1294948688.085059
WEIGHT 34.733711
ROBOTLASER1  0 -1.570796 3.141593 0.017453 81.9 0.01 0 181 0.92 0.92 0.90 0.91 0.91 0.91 0.91 0.92 0.92 0.92 0.90 0.81 0.81 0.81 0.82 0.83 0.84 0.83 0.84 0.84 0.85 0.85 0.85 0.86 0.86 0.87 0.88 0.88 0.89 0.90 0.91 0.91 0.92 0.93 0.94 0.94 0.96 0.97 0.99 0.99 1.00 1.01 1.02 1.04 1.05 1.07 1.10 1.12 1.13 1.15 1.16 1.19 1.21 1.24 1.27 1.29 1.32 1.35 1.39 1.41 1.46 1.49 1.53 1.58 1.62 1.68 1.73 1.79 1.85 1.91 1.98 2.07 2.15 2.25 2.36 2.48 2.62 2.77 2.93 3.13 3.33 3.58 3.89 4.80 4.90 5.02 5.13 6.99 6.96 7.05 7.05 7.04 7.03 7.03 7.03 7.03 6.93 6.94 6.95 6.94 6.97 5.06 4.41 3.93 3.53 3.22 2.95 2.81 2.81 2.79 2.62 2.43 2.29 2.14 2.07 1.97 1.89 1.81 1.75 1.43 1.40 1.36 1.31 1.26 1.22 1.19 1.15 1.12 1.10 1.07 1.04 1.01 0.99 0.98 0.95 0.93 0.91 0.90 0.88 0.86 0.85 0.84 0.83 0.81 0.81 0.79 0.78 0.77 0.76 0.74 0.74 0.74 0.74 0.73 0.72 0.71 0.70 0.69 0.68 0.68 0.67 0.66 0.66 0.66 0.66 0.66 0.66 0.65 0.65 0.65 0.65 0.64 0.64 0.64 0.63 0.64 0.63 0.63 0.63 0.62 0.62 0 0.184000 0.003000 -0.012471 0.184000 0.003000 -0.012471 0 0 0.55 0.375 1000000.0 1294948688.085059 localhost 1294948688.085059
ODOM 0.184000 0.003000 -0.012471 0 0 0 0.000000 pippo 0.000000
NEFF 29.957113 0.000000 pippo 0.000000
ODOM 0.195000 0.003000 -0.014957 0 0 0 1294948688.192141 pippo 1294948688.192141
ODOM 0.206000 0.001000 -0.010446 0 0 0 1294948688.298260 pippo 1294948688.298260
ODOM 0.216000 0.002000 -0.010657 0 0 0 1294948688.405139 pippo 1294948688.405139
ODOM 0.228000 0.001000 -0.013975 0 0 0 1294948688.512146 pippo 1294948688.512146
ODOM 0.238000 0.001000 -0.014191 0 0 0 1294948688.618164 pippo 1294948688.618164
ODOM 0.248000 0.001000 -0.011957 0 0 0 1294948688.725029 pippo 1294948688.725029
ODOM 0.261000 0.002000 -0.010907 0 0 0 1294948688.832260 pippo 1294948688.832260
ODOM 0.277000 0.002000 -0.010886 0 0 0 1294948688.938123 pippo 1294948688.938123
ODOM 0.284000 0.003000 -0.010840 0 0 0 1294948689.045288 pippo 1294948689.045288
ODOM 0.294000 0.003000 -0.010836 0 0 0 1294948689.152018 pippo 1294948689.152018
ODOM 0.305000 0.003000 -0.010183 0 0 0 1294948689.258172 pippo 1294948689.258172
ODOM 0.316000 0.002000 -0.012180 0 0 0 1294948689.365259 pippo 1294948689.365259
ODOM 0.326000 0.002000 -0.012548 0 0 0 1294948689.472015 pippo 1294948689.472015
ODOM 0.335000 0.003000 -0.011304 0 0 0 1294948689.579014 pippo 1294948689.579014
ODOM 0.349000 0.003000 -0.011676 0 0 0 1294948689.685059 pippo 1294948689.685059
WEIGHT 21.169016
ROBOTLASER1  0 -1.570796 3.141593 0.017453 81.9 0.01 0 181 0.80 0.80 0.80 0.80 0.79 0.80 0.80 0.80 0.81 0.80 0.80 0.80 0.80 0.80 0.81 0.82 0.82 0.81 0.82 0.82 0.82 0.83 0.83 0.84 0.84 0.85 0.86 0.86 0.87 0.88 0.88 0.89 0.90 0.91 0.91 0.93 0.94 0.95 0.95 0.97 0.98 0.99 1.00 1.02 1.03 1.05 1.06 1.09 1.11 1.11 1.14 1.16 1.18 1.22 1.24 1.27 1.29 1.33 1.36 1.38 1.41 1.46 1.50 1.55 1.59 1.64 1.69 1.75 1.81 1.88 1.96 2.04 2.13 2.22 2.33 2.45 2.58 2.74 2.89 3.08 3.29 3.54 4.35 4.58 4.58 4.68 6.67 6.65 6.64 6.72 6.72 6.71 6.71 6.70 6.70 6.71 6.60 6.61 6.63 6.64 6.64 5.39 4.45 3.98 3.60 3.27 3.00 2.76 2.56 2.50 2.51 2.51 2.36 2.26 2.13 2.02 1.93 1.81 1.77 1.72 1.66 1.60 1.54 1.50 1.46 1.41 1.22 1.14 1.13 1.10 1.07 1.04 1.01 1.00 0.99 0.96 0.94 0.92 0.90 0.89 0.88 0.86 0.85 0.84 0.83 0.81 0.81 0.80 0.79 0.77 0.76 0.76 0.75 0.74 0.74 0.74 0.74 0.72 0.71 0.70 0.69 0.68 0.68 0.67 0.67 0.67 0.67 0.67 0.67 0.66 0.66 0.66 0.66 0.65 0.65 0.65 0.65 0.65 0.64 0.64 0.65 0 0.534000 0.003000 -0.008551 0.534000 0.003000 -0.008551 0 0 0.55 0.375 1000000.0 1294948689.685059 localhost 1294948689.685059
ODOM 0.534000 0.003000 -0.008551 0 0 0 0.000000 pippo 0.000000
NEFF 29.945758 0.000000 pippo 0.000000
ODOM 0.543000 0.003000 -0.007482 0 0 0 1294948689.792032 pippo 1294948689.792032
ODOM 0.553000 0.003000 -0.005259 0 0 0 1294948689.899012 pippo 1294948689.899012
ODOM 0.564000 0.004000 -0.009305 0 0 0 1294948690.005240 pippo 1294948690.005240
ODOM 0.575000 0.004000 -0.008488 0 0 0 1294948690.112125 pippo 1294948690.112125
ODOM 0.584000 0.004000 -0.010967 0 0 0 1294948690.219348 pippo 1294948690.219348
ODOM 0.595000 0.004000 -0.011427 0 0 0 1294948690.325240 pippo 1294948690.325240
ODOM 0.606000 0.004000 -0.010903 0 0 0 1294948690.432173 pippo 1294948690.432173
ODOM 0.616000 0.004000 -0.010489 0 0 0 1294948690.539000 pippo 1294948690.539000
ODOM 0.626000 0.004000 -0.010445 0 0 0 1294948690.646124 pippo 1294948690.646124
ODOM 0.634000 0.004000 -0.012044 0 0 0 1294948690.752236 pippo 1294948690.752236
ODOM 0.644000 0.004000 -0.010544 0 0 0 1294948690.859194 pippo 1294948690.859194
ODOM 0.654000 0.005000 0.002925 0 0 0 1294948690.966139 pippo 1294948690.966139
WEIGHT 14.101075
ROBOTLASER1  0 -1.570796 3.141593 0.017453 81.9 0.01 0 181 0.78 0.77 0.79 0.78 0.78 0.78 0.78 0.78 0.79 0.78 0.78 0.79 0.79 0.79 0.80 0.80 0.81 0.82 0.82 0.83 0.83 0.83 0.84 0.84 0.84 0.85 0.86 0.86 0.87 0.87 0.88 0.89 0.90 0.92 0.92 0.93 0.94 0.95 0.96 0.97 0.99 1.00 1.01 1.03 1.04 1.05 1.06 1.09 1.11 1.13 1.14 1.17 1.19 1.22 1.25 1.27 1.31 1.34 1.37 1.41 1.43 1.47 1.52 1.57 1.61 1.68 1.72 1.79 1.86 1.93 2.01 2.10 2.20 2.31 2.43 2.59 2.72 2.89 3.06 3.27 4.00 4.34 4.32 4.42 4.53 6.41 6.39 6.38 6.47 6.46 6.46 6.45 6.45 6.45 6.45 6.35 6.36 6.37 6.37 6.38 5.43 4.50 4.00 3.62 3.30 3.03 2.81 2.61 2.44 2.30 2.26 2.27 2.28 2.18 2.08 1.98 1.90 1.82 1.75 1.68 1.60 1.56 1.52 1.47 1.43 1.40 1.36 1.32 1.29 1.26 1.22 1.20 1.17 1.15 0.97 0.95 0.95 0.93 0.91 0.90 0.89 0.87 0.86 0.85 0.84 0.83 0.82 0.82 0.80 0.79 0.78 0.77 0.76 0.75 0.74 0.74 0.74 0.73 0.72 0.72 0.71 0.70 0.69 0.69 0.69 0.68 0.68 0.68 0.68 0.67 0.67 0.67 0.67 0.67 0.66 0.66 0.66 0.66 0.65 0.65 0.64 0 0.779000 0.003000 0.012300 0.779000 0.003000 0.012300 0 0 0.55 0.375 1000000.0 1294948690.966139 localhost 1294948690.966139
ODOM 0.779000 0.003000 0.012300 0 0 0 0.000000 pippo 0.000000
NEFF 29.913455 0.000000 pippo 0.000000
ODOM 0.794000 0.004000 0.040093 0 0 0 1294948691.072134 pippo 1294948691.072134
WEIGHT 7.204615
ROBOTLASER1  0 -1.570796 3.141593 0.017453 81.9 0.01 0 181 0.78 0.80 0.78 0.78 0.78 0.79 0.78 0.79 0.79 0.79 0.80 0.80 0.80 0.81 0.81 0.82 0.83 0.83 0.83 0.84 0.84 0.85 0.85 0.86 0.87 0.87 0.88 0.89 0.90 0.91 0.92 0.92 0.93 0.93 0.95 0.96 0.97 0.98 1.00 1.01 1.03 1.05 1.05 1.07 1.09 1.11 1.12 1.15 1.16 1.19 1.22 1.24 1.27 1.30 1.34 1.36 1.39 1.42 1.47 1.51 1.55 1.59 1.65 1.71 1.78 1.84 1.92 1.99 2.08 2.17 2.28 2.39 2.53 2.68 2.82 3.01 3.19 3.42 4.22 4.31 4.41 4.41 6.39 6.37 6.37 6.44 6.44 6.44 6.43 6.42 6.42 6.42 6.35 6.33 6.34 6.35 6.36 6.37 4.70 4.16 3.74 3.40 3.11 2.88 2.68 2.49 2.33 2.22 2.23 2.25 2.22 2.11 2.01 1.92 1.84 1.77 1.70 1.61 1.57 1.52 1.48 1.44 1.40 1.37 1.34 1.30 1.27 1.23 1.20 1.17 1.15 1.13 0.96 0.94 0.93 0.91 0.90 0.88 0.87 0.86 0.85 0.84 0.83 0.82 0.81 0.80 0.79 0.78 0.77 0.76 0.75 0.74 0.74 0.74 0.72 0.72 0.72 0.71 0.70 0.70 0.69 0.68 0.68 0.68 0.68 0.68 0.67 0.67 0.66 0.66 0.66 0.66 0.66 0.66 0.65 0.65 0.65 0.65 0.64 0.64 0.65 0 0.809000 0.003000 0.061968 0.809000 0.003000 0.061968 0 0 0.55 0.375 1000000.0 1294948691.072134 localhost 1294948691.072134
ODOM 0.809000 0.003000 0.061968 0 0 0 0.000000 pippo 0.000000
NEFF 29.853601 0.000000 pippo 0.000000
ODOM 0.820000 0.005000 0.107883 0 0 0 1294948691.179220 pippo 1294948691.179220
WEIGHT 7.599776
ROBOTLASER1  0 -1.570796 3.141593 0.017453 81.9 0.01 0 181 0.78 0.79 0.79 0.79 0.79 0.80 0.80 0.80 0.80 0.81 0.81 0.82 0.82 0.83 0.83 0.83 0.84 0.85 0.85 0.86 0.87 0.88 0.88 0.89 0.89 0.90 0.91 0.91 0.92 0.93 0.94 0.95 0.96 0.98 0.99 1.00 1.01 1.03 1.05 1.06 1.08 1.10 1.12 1.13 1.15 1.17 1.20 1.22 1.25 1.27 1.31 1.34 1.37 1.41 1.44 1.47 1.51 1.57 1.61 1.68 1.72 1.78 1.86 1.93 2.00 2.09 2.19 2.30 2.42 2.56 2.69 2.84 3.01 3.20 3.61 4.27 4.28 4.40 4.40 6.37 6.36 6.34 6.43 6.43 6.42 6.41 6.41 6.40 6.41 6.31 6.31 6.32 6.33 6.34 6.35 4.67 4.13 3.72 3.39 3.10 2.86 2.65 2.47 2.31 2.20 2.21 2.23 2.20 2.10 1.99 1.91 1.83 1.76 1.68 1.62 1.55 1.52 1.47 1.43 1.39 1.36 1.33 1.29 1.25 1.22 1.19 1.17 1.14 1.12 1.10 0.93 0.91 0.92 0.89 0.88 0.87 0.85 0.84 0.83 0.82 0.81 0.80 0.79 0.78 0.77 0.76 0.75 0.74 0.74 0.74 0.73 0.72 0.71 0.70 0.70 0.69 0.69 0.68 0.68 0.68 0.68 0.68 0.67 0.67 0.66 0.66 0.66 0.65 0.65 0.65 0.65 0.65 0.64 0.64 0.64 0.64 0.63 0.65 0.64 0.64 0.64 0 0.824000 0.005000 0.114133 0.824000 0.005000 0.114133 0 0 0.55 0.375 1000000.0 1294948691.179220 localhost 1294948691.179220
ODOM 0.824000 0.005000 0.114133 0 0 0 0.000000 pippo 0.000000
NEFF 29.852817 0.000000 pippo 0.000000
ODOM 0.826000 0.008000 0.156868 0 0 0 1294948691.286019 pippo 1294948691.286019
WEIGHT 1.090602
ROBOTLASER1  0 -1.570796 3.141593 0.017453 81.9 0.01 0 181 0.78 0.79 0.80 0.80 0.79 0.80 0.81 0.81 0.81 0.81 0.82 0.83 0.83 0.83 0.83 0.84 0.84 0.85 0.86 0.87 0.87 0.88 0.89 0.90 0.91 0.91 0.91 0.92 0.93 0.94 0.95 0.97 0.98 0.99 1.00 1.01 1.03 1.05 1.06 1.07 1.10 1.12 1.13 1.15 1.17 1.19 1.22 1.24 1.27 1.30 1.34 1.36 1.39 1.42 1.46 1.50 1.54 1.60 1.66 1.70 1.77 1.83 1.90 1.98 2.06 2.15 2.26 2.37 2.51 2.64 2.79 2.95 3.14 3.34 4.11 4.28 4.29 4.36 6.36 6.34 6.33 6.31 6.41 6.40 6.39 6.39 6.39 6.40 6.40 6.29 6.29 6.30 6.32 6.33 5.11 4.33 3.86 3.49 3.19 2.94 2.72 2.54 2.37 2.22 2.19 2.20 2.22 2.13 2.03 1.93 1.86 1.78 1.71 1.65 1.56 1.53 1.48 1.45 1.41 1.37 1.34 1.30 1.27 1.23 1.21 1.17 1.15 1.13 1.12 1.09 0.92 0.90 0.90 0.89 0.86 0.86 0.84 0.83 0.83 0.81 0.80 0.79 0.78 0.77 0.77 0.76 0.75 0.74 0.74 0.73 0.72 0.71 0.70 0.69 0.69 0.69 0.69 0.68 0.68 0.68 0.68 0.67 0.67 0.66 0.66 0.66 0.65 0.65 0.65 0.65 0.65 0.64 0.64 0.64 0.64 0.64 0.63 0.64 0.64 0.64 0.64 0 0.845000 0.003000 0.127180 0.845000 0.003000 0.127180 0 0 0.55 0.375 1000000.0 1294948691.286019 localhost 1294948691.286019
ODOM 0.845000 0.003000 0.127180 0 0 0 0.000000 pippo 0.000000
NEFF 29.828823 0.000000 pippo 0.000000
ODOM 0.856000 0.005000 0.133003 0 0 0 1294948691.393193 pippo 1294948691.393193
ODOM 0.865000 0.006000 0.137413 0 0 0 1294948691.498990 pippo 1294948691.498990
ODOM 0.871000 0.009000 0.115515 0 0 0 1294948691.606134 pippo 1294948691.606134
WEIGHT 0.617728
ROBOTLASER1  0 -1.570796 3.141593 0.017453 81.9 0.01 0 181 0.80 0.78 0.78 0.78 0.79 0.79 0.79 0.80 0.80 0.80 0.80 0.81 0.81 0.81 0.82 0.82 0.83 0.84 0.84 0.84 0.85 0.85 0.86 0.87 0.87 0.88 0.89 0.90 0.90 0.92 0.92 0.92 0.93 0.95 0.96 0.97 0.98 1.00 1.00 1.02 1.04 1.05 1.06 1.09 1.11 1.12 1.14 1.16 1.18 1.21 1.24 1.27 1.29 1.32 1.35 1.38 1.41 1.45 1.49 1.53 1.59 1.65 1.69 1.76 1.82 1.88 1.96 2.04 2.14 2.25 2.36 2.47 2.62 2.76 2.92 3.11 3.29 4.06 4.21 4.22 4.31 6.29 6.28 6.26 6.24 6.34 6.33 6.32 6.32 6.31 6.32 6.32 6.22 6.22 6.24 6.24 6.26 5.42 4.41 3.94 3.56 3.24 2.98 2.76 2.57 2.42 2.27 2.11 2.13 2.14 2.13 2.05 1.96 1.87 1.80 1.73 1.67 1.60 1.53 1.47 1.45 1.41 1.37 1.34 1.31 1.27 1.24 1.21 1.18 1.15 1.13 1.12 1.09 1.07 1.06 1.04 0.88 0.86 0.83 0.84 0.83 0.82 0.82 0.81 0.80 0.79 0.78 0.77 0.76 0.74 0.74 0.74 0.73 0.72 0.71 0.71 0.70 0.70 0.69 0.68 0.68 0.67 0.67 0.67 0.67 0.67 0.66 0.66 0.66 0.66 0.66 0.65 0.65 0.65 0.64 0.64 0.64 0.64 0.63 0.64 0.64 0 0.880000 0.015000 0.065515 0.880000 0.015000 0.065515 0 0 0.55 0.375 1000000.0 1294948691.606134 localhost 1294948691.606134
ODOM 0.880000 0.015000 0.065515 0 0 0 0.000000 pippo 0.000000
NEFF 29.809939 0.000000 pippo 0.000000
ODOM 0.900000 0.012000 0.012251 0 0 0 1294948691.711999 pippo 1294948691.711999
WEIGHT 0.571951
ROBOTLASER1  0 -1.570796 3.141593 0.017453 81.9 0.01 0 181 0.78 0.77 0.78 0.79 0.78 0.79 0.78 0.78 0.78 0.79 0.79 0.79 0.80 0.80 0.80 0.81 0.82 0.82 0.82 0.82 0.82 0.83 0.84 0.84 0.85 0.85 0.86 0.87 0.87 0.88 0.89 0.90 0.90 0.92 0.92 0.93 0.94 0.95 0.96 0.97 0.99 1.00 1.02 1.03 1.05 1.05 1.07 1.09 1.12 1.13 1.15 1.17 1.20 1.22 1.25 1.27 1.30 1.33 1.37 1.41 1.44 1.47 1.52 1.57 1.62 1.68 1.73 1.79 1.86 1.93 2.01 2.09 2.20 2.31 2.43 2.58 2.71 2.88 3.04 3.26 3.97 4.19 4.18 4.29 4.45 6.26 6.25 6.23 6.32 6.31 6.31 6.30 6.31 6.31 6.30 6.21 6.20 6.21 6.22 6.23 6.25 4.55 4.04 3.66 3.33 3.07 2.83 2.63 2.46 2.31 2.18 2.11 2.12 2.13 2.09 1.99 1.91 1.83 1.76 1.68 1.63 1.57 1.50 1.45 1.42 1.39 1.36 1.32 1.28 1.25 1.22 1.19 1.16 1.15 1.12 1.11 1.08 1.06 1.05 1.03 0.99 0.86 0.84 0.84 0.83 0.82 0.82 0.81 0.80 0.78 0.77 0.76 0.75 0.74 0.74 0.74 0.73 0.73 0.72 0.71 0.70 0.70 0.69 0.69 0.68 0.68 0.67 0.67 0.67 0.67 0.66 0.66 0.67 0.66 0.66 0.66 0.65 0.65 0.65 0.64 0.64 0 0.925000 0.018000 0.009126 0.925000 0.018000 0.009126 0 0 0.55 0.375 1000000.0 1294948691.711999 localhost 1294948691.711999
ODOM 0.925000 0.018000 0.009126 0 0 0 0.000000 pippo 0.000000
NEFF 29.810871 0.000000 pippo 0.000000
ODOM 0.934000 0.012000 -0.049958 0 0 0 1294948691.818980 pippo 1294948691.818980
WEIGHT 0.935698
ROBOTLASER1  0 -1.570796 3.141593 0.017453 81.9 0.01 0 181 0.78 0.78 0.78 0.78 0.77 0.77 0.79 0.78 0.77 0.78 0.77 0.78 0.77 0.78 0.79 0.79 0.80 0.80 0.80 0.81 0.81 0.82 0.82 0.82 0.82 0.82 0.83 0.84 0.84 0.85 0.86 0.87 0.87 0.88 0.89 0.90 0.91 0.92 0.92 0.93 0.95 0.95 0.96 0.98 0.99 1.00 1.02 1.03 1.05 1.06 1.08 1.11 1.12 1.13 1.16 1.18 1.21 1.22 1.26 1.28 1.31 1.35 1.39 1.42 1.47 1.50 1.55 1.60 1.65 1.70 1.77 1.83 1.89 1.98 2.07 2.16 2.27 2.40 2.52 2.67 2.83 2.99 3.21 3.90 4.18 4.17 4.27 4.35 6.24 6.23 6.21 6.30 6.30 6.29 6.29 6.29 6.29 6.28 6.23 6.19 6.19 6.20 6.21 6.22 4.98 4.18 3.77 3.44 3.14 2.90 2.69 2.52 2.37 2.23 2.09 2.09 2.11 2.11 2.03 1.94 1.86 1.79 1.71 1.65 1.59 1.53 1.48 1.44 1.41 1.38 1.33 1.30 1.27 1.24 1.21 1.19 1.17 1.14 1.12 1.10 1.07 1.06 1.05 1.02 1.00 0.86 0.85 0.83 0.83 0.82 0.82 0.80 0.79 0.78 0.77 0.76 0.76 0.75 0.74 0.74 0.74 0.73 0.72 0.72 0.71 0.70 0.70 0.69 0.68 0.68 0.68 0.67 0.67 0.67 0.67 0.67 0.67 0.67 0.67 0.66 0.66 0 0.947000 0.014000 -0.043708 0.947000 0.014000 -0.043708 0 0 0.55 0.375 1000000.0 1294948691.818980 localhost 1294948691.818980
ODOM 0.947000 0.014000 -0.043708 0 0 0 0.000000 pippo 0.000000
NEFF 29.835178 0.000000 pippo 0.000000
ODOM 0.949000 0.009000 -0.093309 0 0 0 1294948691.925978 pippo 1294948691.925978
WEIGHT 0.632450
ROBOTLASER1  0 -1.570796 3.141593 0.017453 81.9 0.01 0 181 0.78 0.77 0.77 0.77 0.77 0.77 0.76 0.76 0.76 0.77 0.76 0.77 0.76 0.77 0.77 0.77 0.78 0.79 0.79 0.79 0.80 0.80 0.80 0.80 0.81 0.81 0.82 0.82 0.82 0.83 0.83 0.84 0.85 0.86 0.86 0.87 0.88 0.89 0.90 0.90 0.92 0.92 0.93 0.94 0.95 0.96 0.98 0.99 1.00 1.02 1.03 1.05 1.07 1.09 1.11 1.13 1.14 1.16 1.19 1.21 1.24 1.27 1.30 1.33 1.37 1.40 1.44 1.48 1.53 1.58 1.63 1.68 1.74 1.80 1.88 1.95 2.04 2.13 2.23 2.35 2.48 2.62 2.78 2.93 3.13 3.82 4.16 4.13 4.25 4.27 6.22 6.20 6.20 6.28 6.28 6.27 6.26 6.26 6.26 6.26 6.27 6.16 6.17 6.18 6.19 6.20 5.10 4.31 3.86 3.50 3.21 2.97 2.76 2.57 2.41 2.27 2.15 2.07 2.09 2.09 2.06 1.97 1.88 1.81 1.74 1.68 1.61 1.57 1.51 1.45 1.42 1.39 1.35 1.32 1.28 1.25 1.22 1.19 1.17 1.16 1.13 1.11 1.08 1.06 1.06 1.04 1.02 1.00 0.95 0.84 0.83 0.82 0.82 0.81 0.80 0.79 0.78 0.78 0.77 0.76 0.75 0.74 0.74 0.74 0.73 0.72 0.71 0.70 0.71 0.70 0.69 0.69 0.69 0.68 0.67 0.67 0.67 0.67 0.67 0.67 0.67 0 0.948000 0.014000 -0.087059 0.948000 0.014000 -0.087059 0 0 0.55 0.375 1000000.0 1294948691.925978 localhost 1294948691.925978
ODOM 0.948000 0.014000 -0.087059 0 0 0 0.000000 pippo 0.000000
NEFF 29.803699 0.000000 pippo 0.000000
ODOM 0.958000 0.009000 -0.121361 0 0 0 1294948692.033004 pippo 1294948692.033004
WEIGHT 1.045697
ROBOTLASER1  0 -1.570796 3.141593 0.017453 81.9 0.01 0 181 0.77 0.77 0.76 0.76 0.77 0.76 0.76 0.76 0.76 0.76 0.76 0.76 0.76 0.76 0.76 0.76 0.77 0.78 0.78 0.78 0.78 0.79 0.79 0.79 0.79 0.80 0.80 0.81 0.82 0.81 0.82 0.82 0.83 0.83 0.84 0.85 0.86 0.86 0.88 0.89 0.90 0.91 0.92 0.92 0.93 0.93 0.95 0.96 0.98 1.00 1.01 1.02 1.04 1.05 1.07 1.09 1.12 1.14 1.16 1.17 1.19 1.22 1.25 1.27 1.31 1.34 1.38 1.42 1.46 1.51 1.55 1.60 1.66 1.72 1.79 1.85 1.91 1.99 2.09 2.19 2.30 2.42 2.56 2.72 2.87 3.06 3.39 4.03 4.12 4.21 4.21 6.20 6.19 6.18 6.16 6.25 6.25 6.24 6.23 6.24 6.23 6.23 6.13 6.14 6.15 6.16 6.18 6.19 4.46 3.97 3.62 3.30 3.03 2.81 2.62 2.45 2.31 2.18 2.04 2.05 2.07 2.08 2.00 1.91 1.84 1.77 1.70 1.63 1.58 1.53 1.48 1.41 1.40 1.37 1.33 1.29 1.27 1.23 1.21 1.17 1.16 1.14 1.12 1.10 1.07 1.05 1.05 1.03 1.01 1.00 0.98 0.84 0.82 0.82 0.81 0.80 0.80 0.79 0.78 0.77 0.75 0.75 0.74 0.74 0.74 0.74 0.72 0.71 0.71 0.70 0.70 0.70 0.69 0.69 0.68 0.68 0.68 0.67 0.67 0.67 0.67 0 0.995000 0.010000 -0.104173 0.995000 0.010000 -0.104173 0 0 0.55 0.375 1000000.0 1294948692.033004 localhost 1294948692.033004
ODOM 0.995000 0.010000 -0.104173 0 0 0 0.000000 pippo 0.000000
NEFF 29.804394 0.000000 pippo 0.000000
ODOM 1.006000 0.009000 -0.119226 0 0 0 1294948692.139232 pippo 1294948692.139232
ODOM 1.015000 0.008000 -0.113553 0 0 0 1294948692.246199 pippo 1294948692.246199
WEIGHT 0.621737
ROBOTLASER1  0 -1.570796 3.141593 0.017453 81.9 0.01 0 181 0.76 0.76 0.75 0.76 0.76 0.75 0.76 0.75 0.75 0.75 0.76 0.76 0.75 0.75 0.75 0.76 0.77 0.77 0.77 0.77 0.77 0.78 0.79 0.79 0.79 0.80 0.80 0.81 0.81 0.82 0.82 0.83 0.83 0.84 0.84 0.85 0.86 0.87 0.88 0.89 0.90 0.91 0.91 0.92 0.92 0.94 0.96 0.97 0.99 1.00 1.02 1.03 1.05 1.06 1.09 1.11 1.12 1.14 1.17 1.18 1.21 1.24 1.27 1.30 1.34 1.38 1.41 1.45 1.49 1.53 1.60 1.64 1.70 1.77 1.83 1.90 1.98 2.07 2.17 2.29 2.41 2.54 2.68 2.86 3.03 3.64 3.98 4.08 4.17 4.17 6.16 6.15 6.13 6.11 6.21 6.21 6.20 6.19 6.20 6.19 6.20 6.09 6.10 6.11 6.11 6.13 6.14 4.49 4.00 3.63 3.32 3.06 2.83 2.64 2.48 2.33 2.21 2.09 2.02 2.02 2.04 2.01 1.93 1.85 1.78 1.71 1.65 1.59 1.54 1.49 1.44 1.39 1.37 1.34 1.30 1.27 1.24 1.21 1.18 1.17 1.14 1.12 1.10 1.08 1.07 1.05 1.03 1.01 1.00 0.98 0.96 0.96 0.95 0.81 0.80 0.79 0.79 0.78 0.77 0.76 0.76 0.75 0.74 0.74 0.74 0.73 0.72 0.71 0.71 0.70 0.70 0.70 0.69 0.69 0.68 0.68 0.68 0.68 0.68 0.68 0.67 0 1.068000 0.004000 -0.082303 1.068000 0.004000 -0.082303 0 0 0.55 0.375 1000000.0 1294948692.246199 localhost 1294948692.246199
ODOM 1.068000 0.004000 -0.082303 0 0 0 0.000000 pippo 0.000000
NEFF 29.777015 0.000000 pippo 0.000000
ODOM 1.077000 0.003000 -0.071725 0 0 0 1294948692.353223 pippo 1294948692.353223
ODOM 1.094000 0.003000 -0.050714 0 0 0 1294948692.460197 pippo 1294948692.460197
WEIGHT 0.573156
ROBOTLASER1  0 -1.570796 3.141593 0.017453 81.9 0.01 0 181 0.75 0.76 0.75 0.76 0.76 0.75 0.76 0.75 0.75 0.75 0.75 0.75 0.76 0.75 0.76 0.77 0.78 0.78 0.79 0.79 0.79 0.80 0.80 0.80 0.81 0.82 0.81 0.83 0.83 0.83 0.84 0.84 0.85 0.86 0.87 0.88 0.89 0.90 0.91 0.92 0.92 0.93 0.94 0.95 0.97 0.98 1.00 1.01 1.03 1.04 1.06 1.08 1.10 1.12 1.13 1.16 1.17 1.20 1.23 1.27 1.30 1.34 1.36 1.41 1.44 1.48 1.53 1.59 1.63 1.68 1.75 1.81 1.88 1.97 2.06 2.16 2.27 2.39 2.52 2.67 2.81 3.00 3.58 3.94 4.04 4.09 4.13 6.12 6.11 6.09 6.07 6.17 6.16 6.16 6.15 6.15 6.16 6.16 6.05 6.06 6.07 6.07 6.09 6.10 4.83 4.11 3.69 3.39 3.11 2.87 2.68 2.51 2.36 2.23 2.12 1.99 1.98 1.98 1.99 1.95 1.86 1.79 1.73 1.67 1.60 1.55 1.51 1.46 1.42 1.36 1.35 1.31 1.28 1.25 1.22 1.19 1.18 1.15 1.12 1.11 1.09 1.07 1.06 1.04 1.02 1.00 0.99 0.98 0.96 0.95 0.94 0.92 0.87 0.79 0.78 0.77 0.77 0.77 0.75 0.75 0.74 0.74 0.74 0.73 0.72 0.72 0.71 0.70 0.70 0.69 0.69 0.69 0.69 0.68 0.68 0.68 0.68 0.68 0.68 0.67 0.67 0 1.080000 0.002000 -0.035089 1.080000 0.002000 -0.035089 0 0 0.55 0.375 1000000.0 1294948692.460197 localhost 1294948692.460197
ODOM 1.080000 0.002000 -0.035089 0 0 0 0.000000 pippo 0.000000
NEFF 29.777368 0.000000 pippo 0.000000
ODOM 1.091000 -0.004000 -0.006578 0 0 0 1294948692.566005 pippo 1294948692.566005
WEIGHT 0.647402
ROBOTLASER1  0 -1.570796 3.141593 0.017453 81.9 0.01 0 181 0.76 0.75 0.76 0.76 0.75 0.75 0.76 0.76 0.75 0.76 0.75 0.75 0.75 0.76 0.76 0.77 0.78 0.78 0.79 0.79 0.79 0.80 0.80 0.80 0.81 0.82 0.83 0.83 0.83 0.84 0.84 0.85 0.86 0.87 0.87 0.88 0.89 0.90 0.92 0.92 0.92 0.94 0.95 0.97 0.98 1.00 1.01 1.03 1.05 1.05 1.07 1.10 1.12 1.12 1.15 1.17 1.20 1.23 1.26 1.29 1.33 1.35 1.40 1.44 1.48 1.53 1.58 1.63 1.68 1.73 1.79 1.86 1.94 2.04 2.14 2.24 2.36 2.49 2.63 2.78 2.95 3.17 3.86 4.02 4.00 4.12 4.28 6.09 6.07 6.07 6.15 6.14 6.14 6.13 6.13 6.13 6.13 6.08 6.03 6.04 6.05 6.06 6.07 4.93 4.20 3.78 3.46 3.17 2.93 2.72 2.55 2.39 2.26 2.15 2.05 1.95 1.97 1.98 1.97 1.89 1.81 1.75 1.68 1.62 1.57 1.53 1.47 1.44 1.40 1.34 1.33 1.29 1.26 1.22 1.20 1.18 1.16 1.13 1.12 1.09 1.08 1.06 1.04 1.02 1.01 1.00 0.98 0.97 0.95 0.94 0.93 0.92 0.91 0.78 0.78 0.77 0.76 0.76 0.75 0.74 0.74 0.74 0.73 0.73 0.73 0.71 0.71 0.70 0.69 0.69 0.69 0.69 0.68 0.68 0.68 0.68 0.68 0.68 0.68 0.67 0.67 0 1.098000 0.002000 -0.023765 1.098000 0.002000 -0.023765 0 0 0.55 0.375 1000000.0 1294948692.566005 localhost 1294948692.566005
ODOM 1.098000 0.002000 -0.023765 0 0 0 0.000000 pippo 0.000000
NEFF 29.777399 0.000000 pippo 0.000000
ODOM 1.107000 0.006000 -0.013677 0 0 0 1294948692.673196 pippo 1294948692.673196
ODOM 1.114000 0.007000 -0.005983 0 0 0 1294948692.780106 pippo 1294948692.780106
WEIGHT 0.516639
ROBOTLASER1  0 -1.570796 3.141593 0.017453 81.9 0.01 0 181 0.75 0.75 0.75 0.75 0.75 0.75 0.76 0.75 0.75 0.75 0.75 0.76 0.76 0.76 0.77 0.77 0.78 0.78 0.79 0.79 0.79 0.80 0.81 0.81 0.81 0.82 0.82 0.83 0.83 0.84 0.85 0.85 0.87 0.87 0.88 0.89 0.90 0.91 0.92 0.92 0.94 0.95 0.97 0.98 0.99 1.00 1.02 1.03 1.05 1.06 1.09 1.12 1.12 1.14 1.17 1.19 1.22 1.25 1.28 1.32 1.36 1.39 1.43 1.47 1.53 1.58 1.62 1.68 1.73 1.79 1.86 1.95 2.03 2.13 2.24 2.36 2.50 2.63 2.78 2.96 3.59 3.87 3.97 4.00 4.06 4.27 6.03 6.02 6.00 6.09 6.10 6.09 6.08 6.08 6.07 6.08 6.03 5.98 5.98 5.99 6.00 6.02 4.91 4.19 3.77 3.43 3.17 2.92 2.71 2.53 2.38 2.27 2.15 2.03 1.91 1.91 1.92 1.92 1.89 1.81 1.74 1.68 1.62 1.57 1.52 1.47 1.42 1.40 1.35 1.29 1.29 1.25 1.22 1.20 1.18 1.15 1.13 1.11 1.09 1.07 1.06 1.04 1.02 1.00 0.99 0.98 0.96 0.95 0.93 0.93 0.92 0.91 0.90 0.89 0.87 0.75 0.75 0.74 0.73 0.74 0.73 0.72 0.72 0.72 0.71 0.70 0.69 0.69 0.68 0.68 0.68 0.68 0.68 0.68 0.68 0.68 0.68 0.67 0.67 0.67 0.66 0 1.152000 0.005000 -0.005983 1.152000 0.005000 -0.005983 0 0 0.55 0.375 1000000.0 1294948692.780106 localhost 1294948692.780106
ODOM 1.152000 0.005000 -0.005983 0 0 0 0.000000 pippo 0.000000
NEFF 29.778266 0.000000 pippo 0.000000
ODOM 1.162000 0.005000 -0.005207 0 0 0 1294948692.886167 pippo 1294948692.886167
ODOM 1.173000 0.004000 -0.011086 0 0 0 1294948692.993116 pippo 1294948692.993116
ODOM 1.181000 0.004000 -0.008537 0 0 0 1294948693.099252 pippo 1294948693.099252
ODOM 1.190000 0.004000 -0.003699 0 0 0 1294948693.205999 pippo 1294948693.205999
ODOM 1.201000 0.003000 -0.009483 0 0 0 1294948693.313042 pippo 1294948693.313042
WEIGHT 0.546939
ROBOTLASER1  0 -1.570796 3.141593 0.017453 81.9 0.01 0 181 0.75 0.75 0.76 0.75 0.75 0.75 0.75 0.76 0.75 0.75 0.75 0.76 0.75 0.76 0.76 0.77 0.77 0.78 0.78 0.79 0.79 0.80 0.80 0.80 0.81 0.81 0.82 0.83 0.83 0.83 0.84 0.85 0.85 0.86 0.87 0.88 0.89 0.90 0.92 0.92 0.92 0.94 0.95 0.97 0.98 1.00 1.00 1.02 1.04 1.05 1.07 1.09 1.11 1.12 1.15 1.17 1.20 1.24 1.27 1.30 1.34 1.37 1.40 1.44 1.49 1.53 1.59 1.64 1.69 1.75 1.81 1.89 1.98 2.06 2.16 2.28 2.39 2.53 2.67 2.84 3.05 3.68 3.88 3.86 3.97 4.03 5.94 5.93 5.91 5.95 6.00 5.99 5.99 5.99 5.98 5.98 5.98 5.88 5.89 5.89 5.89 5.90 5.92 4.72 4.06 3.67 3.36 3.10 2.86 2.67 2.52 2.36 2.25 2.13 2.03 1.94 1.81 1.83 1.83 1.84 1.81 1.75 1.68 1.62 1.57 1.53 1.48 1.44 1.41 1.36 1.33 1.29 1.25 1.22 1.21 1.18 1.16 1.14 1.12 1.10 1.08 1.07 1.05 1.03 1.01 1.00 0.99 0.97 0.97 0.95 0.94 0.93 0.92 0.91 0.90 0.89 0.88 0.87 0.87 0.86 0.85 0.84 0.84 0.79 0.73 0.72 0.70 0.70 0.71 0.70 0.70 0.70 0.69 0.69 0.69 0.68 0.68 0.68 0.68 0.68 0.68 0 1.257000 0.004000 -0.014171 1.257000 0.004000 -0.014171 0 0 0.55 0.375 1000000.0 1294948693.313042 localhost 1294948693.313042
ODOM 1.257000 0.004000 -0.014171 0 0 0 0.000000 pippo 0.000000
NEFF 29.777896 0.000000 pippo 0.000000
ODOM 1.266000 0.004000 -0.012922 0 0 0 1294948693.420013 pippo 1294948693.420013
ODOM 1.277000 0.003000 -0.008148 0 0 0 1294948693.526147 pippo 1294948693.526147
ODOM 1.286000 0.004000 -0.009992 0 0 0 1294948693.632996 pippo 1294948693.632996
ODOM 1.298000 0.003000 -0.008836 0 0 0 1294948693.739975 pippo 1294948693.739975
ODOM 1.309000 0.004000 -0.011229 0 0 0 1294948693.847055 pippo 1294948693.847055
ODOM 1.319000 0.003000 -0.009951 0 0 0 1294948693.953024 pippo 1294948693.953024
ODOM 1.329000 0.004000 -0.009387 0 0 0 1294948694.060094 pippo 1294948694.060094
ODOM 1.341000 0.004000 -0.009863 0 0 0 1294948694.167218 pippo 1294948694.167218
ODOM 1.350000 0.004000 -0.010068 0 0 0 1294948694.274197 pippo 1294948694.274197
ODOM 1.361000 0.004000 -0.011116 0 0 0 1294948694.379997 pippo 1294948694.379997
ODOM 1.372000 0.003000 -0.012362 0 0 0 1294948694.487209 pippo 1294948694.487209
ODOM 1.381000 0.003000 -0.009340 0 0 0 1294948694.594268 pippo 1294948694.594268
WEIGHT 0.658987
ROBOTLASER1  0 -1.570796 3.141593 0.017453 81.9 0.01 0 181 0.74 0.74 0.73 0.73 0.74 0.72 0.73 0.74 0.74 0.73 0.74 0.74 0.74 0.75 0.75 0.75 0.76 0.76 0.77 0.77 0.77 0.78 0.78 0.79 0.79 0.80 0.80 0.81 0.82 0.83 0.83 0.83 0.84 0.85 0.85 0.87 0.87 0.88 0.89 0.90 0.92 0.92 0.93 0.95 0.96 0.98 1.00 1.00 1.02 1.05 1.05 1.08 1.11 1.13 1.16 1.18 1.21 1.24 1.27 1.30 1.34 1.38 1.42 1.45 1.49 1.54 1.60 1.66 1.71 1.78 1.86 1.93 2.01 2.11 2.22 2.34 2.47 2.62 2.83 3.36 3.61 3.62 3.70 3.71 3.89 5.69 5.67 5.66 5.71 5.74 5.73 5.73 5.73 5.72 5.73 5.73 5.66 5.63 5.63 5.65 5.65 5.67 5.68 4.36 3.76 3.44 3.17 2.94 2.74 2.57 2.44 2.30 2.19 2.09 1.99 1.90 1.83 1.75 1.68 1.60 1.59 1.61 1.62 1.62 1.57 1.52 1.47 1.44 1.41 1.36 1.33 1.29 1.26 1.23 1.22 1.19 1.17 1.14 1.12 1.11 1.09 1.05 1.04 1.04 1.02 1.00 0.99 0.98 0.97 0.96 0.94 0.93 0.93 0.92 0.91 0.90 0.89 0.89 0.87 0.87 0.87 0.85 0.85 0.84 0.84 0.83 0.83 0.83 0.82 0.81 0.82 0.81 0.81 0.80 0.80 0.80 0.80 0.80 0.79 0.79 0.79 0 1.521000 0.005000 0.000035 1.521000 0.005000 0.000035 0 0 0.55 0.375 1000000.0 1294948694.594268 localhost 1294948694.594268
ODOM 1.521000 0.005000 0.000035 0 0 0 0.000000 pippo 0.000000
NEFF 29.776949 0.000000 pippo 0.000000
ODOM 1.529000 0.007000 0.012892 0 0 0 1294948694.701228 pippo 1294948694.701228
ODOM 1.538000 0.007000 0.031406 0 0 0 1294948694.808116 pippo 1294948694.808116
WEIGHT 0.900282
ROBOTLASER1  0 -1.570796 3.141593 0.017453 81.9 0.01 0 181 0.74 0.74 0.73 0.73 0.74 0.74 0.75 0.74 0.74 0.74 0.75 0.75 0.75 0.75 0.75 0.76 0.76 0.77 0.78 0.78 0.79 0.79 0.80 0.80 0.81 0.81 0.82 0.83 0.83 0.83 0.84 0.85 0.86 0.87 0.88 0.89 0.90 0.91 0.92 0.92 0.93 0.95 0.97 0.98 0.99 1.01 1.03 1.05 1.06 1.09 1.11 1.13 1.16 1.19 1.22 1.25 1.28 1.31 1.34 1.38 1.42 1.46 1.50 1.55 1.60 1.66 1.72 1.80 1.87 1.95 2.04 2.14 2.24 2.36 2.49 2.64 3.20 3.40 3.57 3.56 3.67 3.65 5.65 5.64 5.62 5.60 5.70 5.70 5.68 5.68 5.67 5.68 5.68 5.69 5.57 5.59 5.60 5.60 5.61 5.62 5.64 4.26 3.69 3.37 3.11 2.88 2.71 2.54 2.39 2.28 2.16 2.06 1.97 1.88 1.80 1.73 1.66 1.58 1.55 1.56 1.57 1.58 1.55 1.51 1.48 1.43 1.39 1.35 1.32 1.29 1.26 1.22 1.20 1.18 1.16 1.13 1.12 1.10 1.08 1.06 1.04 1.01 1.00 1.01 0.98 0.98 0.97 0.95 0.94 0.93 0.92 0.91 0.90 0.89 0.89 0.88 0.87 0.86 0.85 0.85 0.84 0.83 0.83 0.83 0.83 0.82 0.82 0.81 0.80 0.80 0.80 0.80 0.80 0.80 0.79 0.79 0.79 0.79 0.78 0.78 0.79 0 1.567000 0.004000 0.040781 1.567000 0.004000 0.040781 0 0 0.55 0.375 1000000.0 1294948694.808116 localhost 1294948694.808116
ODOM 1.567000 0.004000 0.040781 0 0 0 0.000000 pippo 0.000000
NEFF 29.791658 0.000000 pippo 0.000000
ODOM 1.576000 0.006000 0.070699 0 0 0 1294948694.915190 pippo 1294948694.915190
WEIGHT 0.492253
ROBOTLASER1  0 -1.570796 3.141593 0.017453 81.9 0.01 0 181 0.73 0.73 0.73 0.74 0.74 0.74 0.75 0.74 0.75 0.75 0.75 0.75 0.75 0.76 0.76 0.77 0.77 0.78 0.79 0.79 0.79 0.80 0.81 0.81 0.82 0.83 0.83 0.83 0.84 0.85 0.86 0.87 0.88 0.88 0.89 0.90 0.92 0.92 0.94 0.95 0.96 0.98 0.99 1.01 1.03 1.05 1.06 1.09 1.11 1.08 1.10 1.13 1.16 1.18 1.21 1.26 1.28 1.32 1.35 1.40 1.45 1.49 1.54 1.60 1.67 1.74 1.81 1.89 1.98 2.08 2.18 2.29 2.43 2.56 3.13 3.35 3.50 3.48 3.59 3.58 5.56 5.55 5.54 5.53 5.61 5.61 5.61 5.60 5.60 5.59 5.60 5.60 5.49 5.51 5.51 5.52 5.60 5.60 5.61 4.24 3.68 3.36 3.10 2.88 2.69 2.53 2.38 2.27 2.15 2.05 1.96 1.87 1.80 1.72 1.66 1.60 1.52 1.53 1.55 1.57 1.55 1.50 1.46 1.42 1.39 1.35 1.32 1.28 1.25 1.22 1.20 1.18 1.16 1.12 1.11 1.09 1.07 1.06 1.04 1.01 1.00 0.99 0.99 0.98 0.96 0.95 0.94 0.93 0.92 0.91 0.90 0.89 0.88 0.87 0.86 0.85 0.85 0.84 0.84 0.83 0.83 0.83 0.82 0.82 0.82 0.81 0.80 0.80 0.79 0.79 0.79 0.79 0.79 0.79 0.78 0.78 0.78 0.78 0.78 0.78 0.78 0 1.628000 0.004000 0.073824 1.628000 0.004000 0.073824 0 0 0.55 0.375 1000000.0 1294948694.915190 localhost 1294948694.915190
ODOM 1.628000 0.004000 0.073824 0 0 0 0.000000 pippo 0.000000
NEFF 29.791632 0.000000 pippo 0.000000
ODOM 1.640000 0.004000 0.107074 0 0 0 1294948695.021209 pippo 1294948695.021209
WEIGHT 0.483974
ROBOTLASER1  0 -1.570796 3.141593 0.017453 81.9 0.01 0 181 0.74 0.74 0.75 0.74 0.75 0.75 0.75 0.75 0.75 0.75 0.75 0.76 0.76 0.76 0.77 0.77 0.78 0.79 0.80 0.80 0.80 0.82 0.82 0.82 0.83 0.83 0.84 0.84 0.86 0.86 0.87 0.89 0.89 0.89 0.91 0.92 0.92 0.94 0.96 0.98 0.99 1.00 1.02 1.04 1.06 1.08 1.09 1.11 1.14 1.17 1.20 1.22 1.26 1.29 1.32 1.35 1.39 1.42 1.47 1.51 1.55 1.61 1.67 1.73 1.80 1.87 1.97 2.05 2.15 2.26 2.37 2.51 2.61 3.19 3.41 3.54 3.52 3.63 3.65 5.60 5.59 5.58 5.57 5.66 5.66 5.64 5.64 5.63 5.63 5.63 5.64 5.53 5.55 5.56 5.56 5.57 5.58 5.60 4.25 3.68 3.37 3.11 2.89 2.70 2.53 2.40 2.27 2.15 2.05 1.95 1.88 1.80 1.72 1.66 1.60 1.51 1.51 1.52 1.53 1.55 1.50 1.46 1.43 1.40 1.34 1.31 1.29 1.25 1.22 1.20 1.18 1.15 1.13 1.12 1.10 1.08 1.06 1.04 1.02 1.00 0.99 0.97 0.97 0.96 0.95 0.94 0.93 0.93 0.91 0.90 0.89 0.88 0.87 0.86 0.86 0.85 0.84 0.84 0.83 0.83 0.83 0.82 0.82 0.82 0.81 0.81 0.80 0.79 0.79 0.79 0.79 0.79 0.79 0.79 0.78 0.78 0.78 0.78 0.77 0.78 0.78 0 1.596000 0.007000 0.091449 1.596000 0.007000 0.091449 0 0 0.55 0.375 1000000.0 1294948695.021209 localhost 1294948695.021209
ODOM 1.596000 0.007000 0.091449 0 0 0 0.000000 pippo 0.000000
NEFF 29.791043 0.000000 pippo 0.000000
ODOM 1.610000 0.007000 0.107796 0 0 0 1294948695.128110 pippo 1294948695.128110
ODOM 1.618000 0.007000 0.110013 0 0 0 1294948695.234016 pippo 1294948695.234016
WEIGHT 7.247262
ROBOTLASER1  0 -1.570796 3.141593 0.017453 81.9 0.01 0 181 0.74 0.74 0.75 0.74 0.75 0.75 0.75 0.75 0.75 0.75 0.76 0.76 0.76 0.77 0.77 0.78 0.79 0.79 0.80 0.80 0.81 0.81 0.82 0.82 0.84 0.84 0.84 0.85 0.86 0.87 0.87 0.88 0.89 0.90 0.91 0.93 0.94 0.95 0.97 0.98 1.00 1.01 1.03 1.05 1.07 1.08 1.10 1.12 1.15 1.17 1.20 1.23 1.27 1.29 1.33 1.35 1.40 1.43 1.48 1.53 1.58 1.62 1.69 1.75 1.82 1.89 1.97 2.07 2.16 2.28 2.40 2.53 3.02 3.23 3.47 3.49 3.48 3.58 3.67 5.56 5.55 5.54 5.52 5.61 5.61 5.60 5.60 5.60 5.59 5.60 5.60 5.49 5.51 5.51 5.53 5.54 5.55 5.55 4.19 3.66 3.33 3.07 2.85 2.66 2.50 2.37 2.26 2.16 2.05 1.94 1.87 1.79 1.71 1.64 1.59 1.52 1.46 1.48 1.49 1.51 1.50 1.45 1.42 1.39 1.34 1.32 1.28 1.25 1.22 1.19 1.18 1.15 1.13 1.12 1.10 1.08 1.06 1.04 1.02 1.01 1.00 0.97 0.96 0.94 0.94 0.94 0.94 0.92 0.91 0.90 0.89 0.88 0.87 0.86 0.85 0.84 0.84 0.84 0.84 0.83 0.82 0.82 0.82 0.81 0.80 0.80 0.80 0.79 0.79 0.79 0.79 0.79 0.79 0.78 0.78 0.78 0.78 0.78 0.77 0.78 0.78 0 1.644000 0.014000 0.091263 1.644000 0.014000 0.091263 0 0 0.55 0.375 1000000.0 1294948695.234016 localhost 1294948695.234016
ODOM 1.644000 0.014000 0.091263 0 0 0 0.000000 pippo 0.000000
NEFF 29.790642 0.000000 pippo 0.000000
ODOM 1.655000 0.015000 0.090929 0 0 0 1294948695.341001 pippo 1294948695.341001
ODOM 1.665000 0.015000 0.091653 0 0 0 1294948695.448102 pippo 1294948695.448102
ODOM 1.676000 0.016000 0.092169 0 0 0 1294948695.554024 pippo 1294948695.554024
ODOM 1.687000 0.017000 0.093881 0 0 0 1294948695.660991 pippo 1294948695.660991
ODOM 1.697000 0.017000 0.094476 0 0 0 1294948695.767117 pippo 1294948695.767117
ODOM 1.706000 0.018000 0.092569 0 0 0 1294948695.874010 pippo 1294948695.874010
ODOM 1.717000 0.019000 0.095326 0 0 0 1294948695.981222 pippo 1294948695.981222
ODOM 1.726000 0.020000 0.095084 0 0 0 1294948696.087119 pippo 1294948696.087119
ODOM 1.737000 0.021000 0.095112 0 0 0 1294948696.194005 pippo 1294948696.194005
ODOM 1.747000 0.021000 0.095120 0 0 0 1294948696.300990 pippo 1294948696.300990
ODOM 1.759000 0.022000 0.093008 0 0 0 1294948696.407996 pippo 1294948696.407996
ODOM 1.770000 0.023000 0.092621 0 0 0 1294948696.514064 pippo 1294948696.514064
ODOM 1.782000 0.024000 0.092109 0 0 0 1294948696.621129 pippo 1294948696.621129
ODOM 1.791000 0.025000 0.093483 0 0 0 1294948696.727040 pippo 1294948696.727040
ODOM 1.800000 0.026000 0.094156 0 0 0 1294948696.834206 pippo 1294948696.834206
WEIGHT 1.204377
ROBOTLASER1  0 -1.570796 3.141593 0.017453 81.9 0.01 0 181 0.75 0.77 0.76 0.75 0.75 0.76 0.76 0.76 0.77 0.77 0.77 0.77 0.77 0.78 0.79 0.79 0.80 0.81 0.81 0.82 0.83 0.84 0.84 0.84 0.84 0.85 0.86 0.87 0.88 0.88 0.89 0.90 0.92 0.93 0.93 0.95 0.96 0.98 0.99 1.00 1.01 1.03 1.05 1.07 1.08 1.11 1.12 1.15 1.17 1.19 1.21 1.25 1.28 1.31 1.35 1.39 1.42 1.47 1.51 1.55 1.61 1.66 1.71 1.79 1.85 1.93 2.02 2.11 2.21 2.28 2.76 2.92 3.09 3.18 3.17 3.28 3.27 3.41 5.25 5.23 5.22 5.21 5.23 5.28 5.28 5.27 5.28 5.27 5.27 5.27 5.27 5.17 5.18 5.18 5.19 5.21 5.22 5.23 4.14 3.76 3.27 3.00 2.79 2.62 2.46 2.32 2.20 2.10 2.00 1.91 1.82 1.76 1.69 1.62 1.56 1.50 1.45 1.40 1.36 1.33 1.28 1.24 1.19 1.18 1.19 1.21 1.23 1.25 1.21 1.18 1.16 1.14 1.12 1.10 1.08 1.07 1.05 1.03 1.01 1.00 0.99 0.98 0.96 0.95 0.94 0.94 0.92 0.91 0.90 0.89 0.87 0.87 0.85 0.84 0.84 0.84 0.83 0.82 0.83 0.81 0.80 0.79 0.80 0.80 0.79 0.79 0.78 0.78 0.78 0.77 0.77 0.77 0.77 0.77 0.77 0.77 0.77 0.77 0.76 0.76 0.77 0 1.956000 0.044000 0.094156 1.956000 0.044000 0.094156 0 0 0.55 0.375 1000000.0 1294948696.834206 localhost 1294948696.834206
ODOM 1.956000 0.044000 0.094156 0 0 0 0.000000 pippo 0.000000
NEFF 29.757481 0.000000 pippo 0.000000
ODOM 1.966000 0.046000 0.095338 0 0 0 1294948696.941177 pippo 1294948696.941177
ODOM 1.977000 0.046000 0.095661 0 0 0 1294948697.048109 pippo 1294948697.048109
ODOM 1.989000 0.047000 0.098434 0 0 0 1294948697.155212 pippo 1294948697.155212
ODOM 2.001000 0.049000 0.097470 0 0 0 1294948697.261172 pippo 1294948697.261172
ODOM 2.011000 0.050000 0.096979 0 0 0 1294948697.368011 pippo 1294948697.368011
ODOM 2.023000 0.050000 0.098466 0 0 0 1294948697.475230 pippo 1294948697.475230
ODOM 2.035000 0.052000 0.099002 0 0 0 1294948697.581124 pippo 1294948697.581124
ODOM 2.046000 0.053000 0.099905 0 0 0 1294948697.688241 pippo 1294948697.688241
ODOM 2.057000 0.053000 0.102139 0 0 0 1294948697.795225 pippo 1294948697.795225
ODOM 2.068000 0.054000 0.102906 0 0 0 1294948697.901032 pippo 1294948697.901032
ODOM 2.077000 0.055000 0.103322 0 0 0 1294948698.007659 pippo 1294948698.007659
ODOM 2.086000 0.056000 0.100784 0 0 0 1294948698.115045 pippo 1294948698.115045
ODOM 2.096000 0.057000 0.098980 0 0 0 1294948698.222010 pippo 1294948698.222010
ODOM 2.107000 0.060000 0.104249 0 0 0 1294948698.328061 pippo 1294948698.328061
ODOM 2.117000 0.061000 0.105270 0 0 0 1294948698.435043 pippo 1294948698.435043
WEIGHT 0.737784
ROBOTLASER1  0 -1.570796 3.141593 0.017453 81.9 0.01 0 181 0.77 0.77 0.77 0.77 0.78 0.78 0.78 0.78 0.79 0.79 0.79 0.80 0.80 0.80 0.81 0.81 0.82 0.84 0.84 0.84 0.84 0.85 0.85 0.86 0.87 0.88 0.89 0.89 0.90 0.91 0.92 0.93 0.93 0.94 0.96 0.97 0.98 1.00 1.01 1.02 1.04 1.06 1.07 1.09 1.11 1.12 1.15 1.17 1.19 1.21 1.24 1.27 1.32 1.34 1.38 1.41 1.45 1.50 1.54 1.60 1.64 1.69 1.76 1.82 1.89 1.97 2.31 2.43 2.54 2.68 2.82 2.89 2.87 2.96 2.96 2.99 4.95 4.94 4.92 4.90 4.89 4.87 4.97 4.97 4.96 4.97 4.97 4.96 4.96 4.96 4.96 4.85 4.86 4.87 4.87 4.87 4.89 4.90 4.92 3.62 3.36 2.94 2.72 2.54 2.40 2.27 2.16 2.05 1.96 1.86 1.78 1.72 1.65 1.60 1.53 1.47 1.42 1.38 1.32 1.30 1.26 1.22 1.18 1.15 1.12 1.10 1.08 1.05 1.03 1.01 0.99 0.97 0.94 0.92 0.93 0.94 0.95 0.97 1.00 0.99 0.98 0.96 0.95 0.94 0.94 0.92 0.91 0.90 0.89 0.88 0.87 0.86 0.85 0.84 0.84 0.84 0.83 0.82 0.81 0.81 0.80 0.80 0.79 0.79 0.78 0.78 0.77 0.77 0.76 0.76 0.76 0.76 0.76 0.76 0.76 0.76 0.76 0.76 0.76 0.75 0.75 0 2.311000 0.075000 0.102145 2.311000 0.075000 0.102145 0 0 0.55 0.375 1000000.0 1294948698.435043 localhost 1294948698.435043
ODOM 2.311000 0.075000 0.102145 0 0 0 0.000000 pippo 0.000000
NEFF 29.160367 0.000000 pippo 0.000000
ODOM 2.322000 0.076000 0.101752 0 0 0 1294948698.542293 pippo 1294948698.542293
ODOM 2.332000 0.077000 0.103020 0 0 0 1294948698.648283 pippo 1294948698.648283
ODOM 2.342000 0.078000 0.104472 0 0 0 1294948698.755034 pippo 1294948698.755034
ODOM 2.352000 0.079000 0.103692 0 0 0 1294948698.862014 pippo 1294948698.862014
ODOM 2.362000 0.079000 0.104104 0 0 0 1294948698.969017 pippo 1294948698.969017
ODOM 2.372000 0.080000 0.103827 0 0 0 1294948699.075020 pippo 1294948699.075020
ODOM 2.382000 0.081000 0.101398 0 0 0 1294948699.182245 pippo 1294948699.182245
ODOM 2.393000 0.082000 0.092788 0 0 0 1294948699.289010 pippo 1294948699.289010
ODOM 2.398000 0.082000 0.072143 0 0 0 1294948699.395182 pippo 1294948699.395182
WEIGHT 0.645837
ROBOTLASER1  0 -1.570796 3.141593 0.017453 81.9 0.01 0 181 0.77 0.79 0.78 0.78 0.79 0.79 0.78 0.78 0.79 0.79 0.79 0.79 0.79 0.80 0.80 0.81 0.82 0.83 0.83 0.84 0.84 0.84 0.84 0.85 0.85 0.86 0.87 0.88 0.88 0.90 0.91 0.91 0.92 0.93 0.93 0.94 0.96 0.97 0.99 1.01 1.01 1.03 1.04 1.07 1.07 1.10 1.12 1.13 1.15 1.17 1.19 1.22 1.25 1.28 1.31 1.35 1.38 1.42 1.45 1.49 1.55 1.60 1.64 1.71 1.76 1.81 2.12 2.22 2.31 2.42 2.53 2.66 2.71 2.69 2.77 2.78 2.78 2.99 4.76 4.75 4.73 4.72 4.71 4.69 4.79 4.78 4.78 4.78 4.77 4.77 4.76 4.77 4.77 4.66 4.67 4.68 4.68 4.69 4.70 4.71 4.71 4.73 3.36 2.98 2.76 2.56 2.41 2.29 2.17 2.06 1.97 1.88 1.79 1.72 1.66 1.60 1.54 1.47 1.42 1.38 1.33 1.30 1.26 1.22 1.19 1.15 1.12 1.10 1.07 1.06 1.03 1.02 0.99 0.98 0.96 0.94 0.93 0.92 0.89 0.89 0.87 0.86 0.85 0.83 0.82 0.81 0.80 0.80 0.82 0.85 0.89 0.87 0.87 0.86 0.85 0.84 0.84 0.84 0.83 0.82 0.82 0.81 0.81 0.80 0.80 0.79 0.78 0.78 0.77 0.77 0.77 0.77 0.77 0.76 0.76 0.76 0.76 0.76 0.76 0.77 0.76 0 2.484000 0.096000 0.058080 2.484000 0.096000 0.058080 0 0 0.55 0.375 1000000.0 1294948699.395182 localhost 1294948699.395182
ODOM 2.484000 0.096000 0.058080 0 0 0 0.000000 pippo 0.000000
NEFF 29.159816 0.000000 pippo 0.000000
ODOM 2.495000 0.096000 0.050344 0 0 0 1294948699.502229 pippo 1294948699.502229
ODOM 2.509000 0.094000 0.035600 0 0 0 1294948699.609262 pippo 1294948699.609262
WEIGHT 0.693764
ROBOTLASER1  0 -1.570796 3.141593 0.017453 81.9 0.01 0 181 0.77 0.76 0.79 0.78 0.78 0.78 0.78 0.78 0.78 0.78 0.79 0.79 0.79 0.79 0.79 0.80 0.81 0.82 0.82 0.83 0.83 0.83 0.84 0.84 0.84 0.85 0.86 0.86 0.87 0.88 0.90 0.90 0.91 0.93 0.93 0.94 0.95 0.95 0.97 0.98 1.00 1.01 1.02 1.03 1.05 1.07 1.08 1.11 1.12 1.14 1.17 1.19 1.21 1.23 1.27 1.30 1.33 1.36 1.40 1.43 1.48 1.52 1.57 1.62 1.68 1.73 1.77 2.10 2.17 2.26 2.37 2.49 2.60 2.67 2.65 2.70 2.75 2.73 2.86 4.73 4.71 4.70 4.68 4.67 4.65 4.75 4.74 4.73 4.73 4.74 4.73 4.73 4.73 4.73 4.74 4.62 4.63 4.64 4.65 4.66 4.66 4.67 4.69 3.45 3.23 2.84 2.64 2.48 2.33 2.21 2.11 2.01 1.92 1.83 1.76 1.69 1.62 1.56 1.50 1.45 1.40 1.35 1.32 1.28 1.24 1.21 1.17 1.14 1.11 1.10 1.06 1.04 1.02 1.00 0.98 0.96 0.95 0.93 0.93 0.91 0.89 0.88 0.87 0.85 0.85 0.84 0.83 0.81 0.79 0.79 0.78 0.79 0.80 0.83 0.87 0.86 0.85 0.85 0.84 0.84 0.83 0.83 0.82 0.81 0.81 0.80 0.79 0.79 0.79 0.79 0.78 0.78 0.78 0.77 0.77 0.77 0.76 0.76 0.77 0.76 0.77 0 2.510000 0.097000 0.034038 2.510000 0.097000 0.034038 0 0 0.55 0.375 1000000.0 1294948699.609262 localhost 1294948699.609262
ODOM 2.510000 0.097000 0.034038 0 0 0 0.000000 pippo 0.000000
NEFF 29.159892 0.000000 pippo 0.000000
ODOM 2.519000 0.099000 0.032363 0 0 0 1294948699.715039 pippo 1294948699.715039
ODOM 2.528000 0.099000 0.037101 0 0 0 1294948699.822036 pippo 1294948699.822036
ODOM 2.539000 0.099000 0.038066 0 0 0 1294948699.929158 pippo 1294948699.929158
ODOM 2.551000 0.099000 0.040752 0 0 0 1294948700.036233 pippo 1294948700.036233
ODOM 2.560000 0.100000 0.035104 0 0 0 1294948700.142412 pippo 1294948700.142412
ODOM 2.570000 0.100000 0.035880 0 0 0 1294948700.249131 pippo 1294948700.249131
ODOM 2.580000 0.100000 0.038228 0 0 0 1294948700.356420 pippo 1294948700.356420
ODOM 2.590000 0.101000 0.038259 0 0 0 1294948700.462285 pippo 1294948700.462285
ODOM 2.604000 0.101000 0.037129 0 0 0 1294948700.569095 pippo 1294948700.569095
WEIGHT 7.428541
ROBOTLASER1  0 -1.570796 3.141593 0.017453 81.9 0.01 0 181 0.77 0.78 0.78 0.78 0.77 0.78 0.78 0.77 0.77 0.78 0.78 0.78 0.79 0.79 0.80 0.80 0.81 0.82 0.82 0.83 0.83 0.84 0.84 0.84 0.84 0.85 0.86 0.86 0.87 0.88 0.89 0.90 0.91 0.93 0.93 0.94 0.95 0.95 0.96 0.98 1.00 1.01 1.01 1.03 1.05 1.07 1.09 1.11 1.12 1.14 1.17 1.18 1.21 1.23 1.27 1.29 1.33 1.37 1.40 1.44 1.48 1.53 1.57 1.61 1.88 1.95 2.03 2.10 2.19 2.28 2.38 2.49 2.47 2.45 2.56 2.56 2.55 2.71 4.54 4.53 4.50 4.49 4.48 4.46 4.46 4.55 4.54 4.54 4.53 4.53 4.53 4.52 4.52 4.53 4.53 4.43 4.44 4.43 4.44 4.45 4.46 4.47 4.49 4.51 3.16 2.98 2.63 2.46 2.32 2.20 2.10 2.00 1.92 1.82 1.76 1.69 1.62 1.56 1.50 1.44 1.40 1.35 1.32 1.27 1.24 1.21 1.17 1.14 1.11 1.10 1.06 1.04 1.02 1.00 0.98 0.97 0.95 0.93 0.93 0.91 0.90 0.88 0.87 0.86 0.85 0.84 0.84 0.82 0.81 0.80 0.79 0.78 0.77 0.76 0.76 0.75 0.75 0.75 0.74 0.74 0.72 0.71 0.71 0.70 0.70 0.73 0.79 0.80 0.80 0.79 0.79 0.79 0.78 0.78 0.78 0.77 0.77 0.77 0.77 0.77 0.77 0 2.726000 0.106000 0.037129 2.726000 0.106000 0.037129 0 0 0.55 0.375 1000000.0 1294948700.569095 localhost 1294948700.569095
ODOM 2.726000 0.106000 0.037129 0 0 0 0.000000 pippo 0.000000
NEFF 29.159633 0.000000 pippo 0.000000
ODOM 2.735000 0.107000 0.039957 0 0 0 1294948700.676109 pippo 1294948700.676109
ODOM 2.746000 0.107000 0.038029 0 0 0 1294948700.783244 pippo 1294948700.783244
ODOM 2.756000 0.108000 0.036693 0 0 0 1294948700.889172 pippo 1294948700.889172
ODOM 2.766000 0.108000 0.037085 0 0 0 1294948700.996392 pippo 1294948700.996392
ODOM 2.775000 0.108000 0.037675 0 0 0 1294948701.103066 pippo 1294948701.103066
ODOM 2.784000 0.110000 0.035124 0 0 0 1294948701.209173 pippo 1294948701.209173
ODOM 2.794000 0.110000 0.035342 0 0 0 1294948701.316126 pippo 1294948701.316126
ODOM 2.811000 0.111000 0.035578 0 0 0 1294948701.423137 pippo 1294948701.423137
ODOM 2.822000 0.111000 0.036234 0 0 0 1294948701.529248 pippo 1294948701.529248
ODOM 2.832000 0.111000 0.037244 0 0 0 1294948701.636166 pippo 1294948701.636166
ODOM 2.844000 0.111000 0.034384 0 0 0 1294948701.743103 pippo 1294948701.743103
ODOM 2.855000 0.112000 0.034479 0 0 0 1294948701.850015 pippo 1294948701.850015
ODOM 2.864000 0.113000 0.033843 0 0 0 1294948701.956135 pippo 1294948701.956135
ODOM 2.874000 0.113000 0.033118 0 0 0 1294948702.063253 pippo 1294948702.063253
ODOM 2.884000 0.113000 0.032961 0 0 0 1294948702.170107 pippo 1294948702.170107
WEIGHT 0.745272
ROBOTLASER1  0 -1.570796 3.141593 0.017453 81.9 0.01 0 181 0.78 0.76 0.76 0.78 0.78 0.77 0.77 0.77 0.77 0.77 0.78 0.78 0.78 0.78 0.79 0.79 0.80 0.80 0.81 0.82 0.82 0.83 0.83 0.84 0.84 0.84 0.85 0.85 0.86 0.87 0.88 0.89 0.90 0.91 0.92 0.94 0.93 0.94 0.96 0.97 0.98 1.00 1.00 1.01 1.04 1.05 1.07 1.09 1.11 1.12 1.15 1.17 1.19 1.22 1.25 1.28 1.32 1.32 1.55 1.60 1.64 1.70 1.74 1.81 1.87 1.93 2.01 2.07 2.16 2.18 2.16 2.15 2.26 2.25 2.24 2.37 4.26 4.24 4.22 4.21 4.19 4.18 4.16 4.14 4.25 4.24 4.23 4.22 4.23 4.22 4.22 4.22 4.21 4.22 4.22 4.11 4.12 4.13 4.13 4.14 4.14 4.15 4.17 4.19 4.21 3.11 2.80 2.54 2.38 2.26 2.15 2.05 1.94 1.87 1.78 1.70 1.64 1.58 1.52 1.46 1.41 1.37 1.33 1.31 1.27 1.22 1.19 1.16 1.13 1.10 1.09 1.06 1.04 1.02 1.00 0.98 0.97 0.96 0.94 0.92 0.91 0.89 0.88 0.86 0.86 0.85 0.84 0.84 0.83 0.82 0.81 0.79 0.78 0.77 0.77 0.76 0.76 0.76 0.75 0.75 0.74 0.73 0.73 0.73 0.72 0.71 0.71 0.70 0.69 0.69 0.69 0.69 0.69 0.69 0.69 0.69 0.69 0.68 0.68 0.68 0.68 0 3.021000 0.118000 0.034523 3.021000 0.118000 0.034523 0 0 0.55 0.375 1000000.0 1294948702.170107 localhost 1294948702.170107
ODOM 3.021000 0.118000 0.034523 0 0 0 0.000000 pippo 0.000000
NEFF 29.175540 0.000000 pippo 0.000000
ODOM 3.033000 0.117000 0.033170 0 0 0 1294948702.276180 pippo 1294948702.276180
ODOM 3.043000 0.117000 0.033703 0 0 0 1294948702.383105 pippo 1294948702.383105
ODOM 3.054000 0.117000 0.033585 0 0 0 1294948702.490043 pippo 1294948702.490043
ODOM 3.064000 0.119000 0.035412 0 0 0 1294948702.596246 pippo 1294948702.596246
ODOM 3.075000 0.119000 0.035596 0 0 0 1294948702.703157 pippo 1294948702.703157
ODOM 3.086000 0.120000 0.033635 0 0 0 1294948702.810031 pippo 1294948702.810031
ODOM 3.097000 0.120000 0.030123 0 0 0 1294948702.917251 pippo 1294948702.917251
ODOM 3.106000 0.121000 0.032796 0 0 0 1294948703.023155 pippo 1294948703.023155
ODOM 3.117000 0.122000 0.035004 0 0 0 1294948703.130149 pippo 1294948703.130149
ODOM 3.126000 0.122000 0.035465 0 0 0 1294948703.237289 pippo 1294948703.237289
ODOM 3.135000 0.122000 0.037180 0 0 0 1294948703.343177 pippo 1294948703.343177
ODOM 3.145000 0.122000 0.038194 0 0 0 1294948703.450108 pippo 1294948703.450108
ODOM 3.156000 0.123000 0.036579 0 0 0 1294948703.557107 pippo 1294948703.557107
ODOM 3.168000 0.123000 0.038158 0 0 0 1294948703.663328 pippo 1294948703.663328
ODOM 3.176000 0.123000 0.037436 0 0 0 1294948703.770022 pippo 1294948703.770022
WEIGHT 7.484198
ROBOTLASER1  0 -1.570796 3.141593 0.017453 81.9 0.01 0 181 0.76 0.76 0.76 0.76 0.77 0.76 0.76 0.76 0.76 0.76 0.76 0.76 0.77 0.77 0.77 0.78 0.78 0.79 0.79 0.80 0.81 0.81 0.82 0.82 0.83 0.83 0.84 0.85 0.85 0.85 0.86 0.87 0.88 0.89 0.90 0.92 0.93 0.94 0.94 0.95 0.97 0.98 1.00 1.01 1.02 1.03 1.05 1.06 1.23 1.25 1.29 1.30 1.33 1.36 1.39 1.43 1.46 1.49 1.54 1.59 1.62 1.68 1.73 1.79 1.84 1.88 1.86 1.84 1.87 1.93 1.93 1.92 1.98 2.08 3.95 3.94 3.91 3.89 3.89 3.87 3.85 3.85 3.83 3.81 3.90 3.90 3.90 3.89 3.89 3.88 3.87 3.87 3.86 3.87 3.89 3.87 3.79 3.79 3.80 3.81 3.81 3.83 3.84 3.85 3.86 3.88 3.89 2.60 2.48 2.35 2.16 2.04 1.96 1.86 1.79 1.71 1.65 1.59 1.52 1.47 1.41 1.37 1.34 1.31 1.27 1.23 1.20 1.17 1.14 1.11 1.10 1.07 1.04 1.02 1.01 0.98 0.96 0.96 0.94 0.93 0.91 0.89 0.89 0.87 0.87 0.85 0.85 0.84 0.83 0.82 0.80 0.79 0.79 0.78 0.77 0.76 0.76 0.76 0.76 0.75 0.74 0.73 0.73 0.73 0.72 0.71 0.70 0.70 0.69 0.69 0.69 0.69 0.69 0.69 0.69 0.69 0.69 0.68 0.68 0.68 0.67 0 3.362000 0.132000 0.035873 3.362000 0.132000 0.035873 0 0 0.55 0.375 1000000.0 1294948703.770022 localhost 1294948703.770022
ODOM 3.362000 0.132000 0.035873 0 0 0 0.000000 pippo 0.000000
NEFF 29.162450 0.000000 pippo 0.000000
ODOM 3.371000 0.133000 0.035261 0 0 0 1294948703.877116 pippo 1294948703.877116
ODOM 3.379000 0.133000 0.035757 0 0 0 1294948703.983026 pippo 1294948703.983026
ODOM 3.391000 0.133000 0.036404 0 0 0 1294948704.090207 pippo 1294948704.090207
ODOM 3.403000 0.134000 0.036912 0 0 0 1294948704.196993 pippo 1294948704.196993
ODOM 3.414000 0.134000 0.036761 0 0 0 1294948704.304321 pippo 1294948704.304321
ODOM 3.424000 0.134000 0.036127 0 0 0 1294948704.410188 pippo 1294948704.410188
ODOM 3.435000 0.135000 0.039593 0 0 0 1294948704.517333 pippo 1294948704.517333
ODOM 3.445000 0.135000 0.035784 0 0 0 1294948704.624520 pippo 1294948704.624520
ODOM 3.456000 0.136000 0.038924 0 0 0 1294948704.730040 pippo 1294948704.730040
ODOM 3.467000 0.135000 0.040862 0 0 0 1294948704.837306 pippo 1294948704.837306
ODOM 3.477000 0.136000 0.039644 0 0 0 1294948704.944108 pippo 1294948704.944108
ODOM 3.487000 0.137000 0.037405 0 0 0 1294948705.051009 pippo 1294948705.051009
ODOM 3.495000 0.136000 0.039029 0 0 0 1294948705.156994 pippo 1294948705.156994
ODOM 3.505000 0.137000 0.042277 0 0 0 1294948705.264002 pippo 1294948705.264002
ODOM 3.515000 0.137000 0.043878 0 0 0 1294948705.371224 pippo 1294948705.371224
WEIGHT 14.475476
ROBOTLASER1  0 -1.570796 3.141593 0.017453 81.9 0.01 0 181 0.76 0.76 0.77 0.76 0.76 0.77 0.76 0.77 0.77 0.77 0.76 0.76 0.76 0.77 0.77 0.78 0.78 0.78 0.80 0.80 0.80 0.81 0.81 0.82 0.83 0.83 0.84 0.85 0.85 0.85 0.86 0.86 0.87 0.94 1.01 1.02 1.03 1.05 1.06 1.08 1.09 1.11 1.12 1.14 1.15 1.17 1.19 1.21 1.23 1.26 1.29 1.30 1.33 1.37 1.39 1.43 1.46 1.50 1.54 1.59 1.59 1.58 1.56 1.57 1.63 1.66 1.65 1.63 1.66 1.72 1.79 3.69 3.66 3.65 3.62 3.61 3.59 3.57 3.56 3.54 3.53 3.51 3.51 3.60 3.58 3.58 3.58 3.57 3.57 3.57 3.56 3.56 3.56 3.57 3.57 3.57 3.46 3.47 3.47 3.48 3.49 3.50 3.51 3.53 3.54 3.56 3.56 3.59 3.61 2.42 2.21 2.12 1.96 1.87 1.80 1.72 1.66 1.60 1.53 1.47 1.42 1.38 1.34 1.31 1.28 1.23 1.21 1.17 1.14 1.13 1.10 1.07 1.05 1.04 1.01 1.00 0.98 0.97 0.95 0.94 0.93 0.91 0.89 0.89 0.87 0.86 0.85 0.85 0.84 0.83 0.81 0.80 0.79 0.79 0.77 0.77 0.76 0.76 0.76 0.76 0.75 0.74 0.74 0.73 0.73 0.72 0.72 0.71 0.70 0.70 0.70 0.70 0.70 0.70 0.69 0.69 0.69 0.69 0.70 0.69 0.69 0 3.665000 0.148000 0.036066 3.665000 0.148000 0.036066 0 0 0.55 0.375 1000000.0 1294948705.371224 localhost 1294948705.371224
ODOM 3.665000 0.148000 0.036066 0 0 0 0.000000 pippo 0.000000
NEFF 29.173128 0.000000 pippo 0.000000
ODOM 3.674000 0.148000 0.035515 0 0 0 1294948705.476173 pippo 1294948705.476173
ODOM 3.684000 0.149000 0.036678 0 0 0 1294948705.584068 pippo 1294948705.584068
ODOM 3.695000 0.150000 0.035163 0 0 0 1294948705.691008 pippo 1294948705.691008
ODOM 3.705000 0.150000 0.035982 0 0 0 1294948705.797008 pippo 1294948705.797008
ODOM 3.715000 0.151000 0.038780 0 0 0 1294948705.904128 pippo 1294948705.904128
ODOM 3.726000 0.151000 0.037544 0 0 0 1294948706.011384 pippo 1294948706.011384
ODOM 3.737000 0.151000 0.035655 0 0 0 1294948706.118193 pippo 1294948706.118193
ODOM 3.748000 0.151000 0.039275 0 0 0 1294948706.223999 pippo 1294948706.223999
ODOM 3.759000 0.152000 0.040536 0 0 0 1294948706.331116 pippo 1294948706.331116
ODOM 3.769000 0.153000 0.040727 0 0 0 1294948706.438209 pippo 1294948706.438209
ODOM 3.779000 0.152000 0.039581 0 0 0 1294948706.544134 pippo 1294948706.544134
ODOM 3.790000 0.152000 0.038788 0 0 0 1294948706.650992 pippo 1294948706.650992
ODOM 3.797000 0.153000 0.042700 0 0 0 1294948706.758011 pippo 1294948706.758011
ODOM 3.807000 0.153000 0.046638 0 0 0 1294948706.864125 pippo 1294948706.864125
ODOM 3.819000 0.154000 0.042865 0 0 0 1294948706.971130 pippo 1294948706.971130
WEIGHT 14.091287
ROBOTLASER1  0 -1.570796 3.141593 0.017453 81.9 0.01 0 181 0.75 0.75 0.75 0.76 0.75 0.76 0.77 0.76 0.76 0.75 0.76 0.76 0.85 0.86 0.86 0.86 0.87 0.88 0.89 0.89 0.89 0.90 0.91 0.91 0.92 0.93 0.94 0.95 0.95 0.96 0.96 0.98 0.99 1.00 1.01 1.03 1.03 1.04 1.05 1.07 1.09 1.10 1.13 1.13 1.14 1.16 1.19 1.21 1.23 1.24 1.28 1.30 1.34 1.32 1.30 1.29 1.28 1.30 1.35 1.38 1.36 1.34 1.33 1.38 1.43 1.47 1.51 3.45 3.43 3.40 3.38 3.35 3.34 3.31 3.29 3.27 3.26 3.25 3.23 3.22 3.20 3.19 3.27 3.27 3.27 3.27 3.26 3.25 3.24 3.24 3.23 3.24 3.23 3.24 3.24 3.25 3.20 3.14 3.15 3.17 3.17 3.19 3.20 3.20 3.21 3.23 3.24 3.26 3.27 3.29 3.31 3.34 2.29 1.91 1.84 1.74 1.67 1.61 1.56 1.49 1.45 1.42 1.37 1.34 1.29 1.26 1.22 1.19 1.16 1.13 1.11 1.08 1.07 1.05 1.02 1.01 0.99 0.97 0.96 0.94 0.94 0.93 0.91 0.89 0.88 0.87 0.86 0.85 0.85 0.84 0.83 0.82 0.80 0.80 0.79 0.78 0.77 0.77 0.77 0.77 0.76 0.75 0.75 0.75 0.74 0.73 0.73 0.72 0.71 0.71 0.71 0.70 0.71 0.71 0.70 0.70 0.70 0.69 0.70 0.70 0.70 0 3.976000 0.152000 0.049115 3.976000 0.152000 0.049115 0 0 0.55 0.375 1000000.0 1294948706.971130 localhost 1294948706.971130
ODOM 3.976000 0.152000 0.049115 0 0 0 0.000000 pippo 0.000000
NEFF 29.146630 0.000000 pippo 0.000000
ODOM 3.984000 0.153000 0.045992 0 0 0 1294948707.078009 pippo 1294948707.078009
ODOM 3.993000 0.152000 0.055222 0 0 0 1294948707.183994 pippo 1294948707.183994
ODOM 4.005000 0.153000 0.050368 0 0 0 1294948707.291002 pippo 1294948707.291002
ODOM 4.014000 0.153000 0.047735 0 0 0 1294948707.397983 pippo 1294948707.397983
ODOM 4.025000 0.153000 0.047882 0 0 0 1294948707.505116 pippo 1294948707.505116
ODOM 4.035000 0.154000 0.047152 0 0 0 1294948707.610997 pippo 1294948707.610997
ODOM 4.054000 0.155000 0.049498 0 0 0 1294948707.718112 pippo 1294948707.718112
ODOM 4.069000 0.156000 0.049517 0 0 0 1294948707.825303 pippo 1294948707.825303
ODOM 4.076000 0.157000 0.050900 0 0 0 1294948707.931251 pippo 1294948707.931251
WEIGHT 21.051785
ROBOTLASER1  0 -1.570796 3.141593 0.017453 81.9 0.01 0 181 0.84 0.83 0.84 0.85 0.84 0.85 0.85 0.85 0.85 0.85 0.85 0.85 0.85 0.85 0.85 0.86 0.87 0.87 0.88 0.89 0.89 0.90 0.91 0.91 0.92 0.93 0.94 0.95 0.95 0.95 0.96 0.97 0.98 1.00 1.01 1.02 1.03 1.03 1.05 1.07 1.09 1.10 1.12 1.13 1.14 1.16 1.19 1.17 1.15 1.13 1.11 1.13 1.17 1.19 1.21 1.20 1.18 1.16 1.17 1.21 1.24 1.28 1.32 1.50 3.32 3.28 3.27 3.23 3.21 3.19 3.16 3.14 3.12 3.11 3.09 3.07 3.05 3.04 3.03 3.01 3.00 2.98 3.09 3.08 3.07 3.06 3.06 3.05 3.05 3.05 3.04 3.04 3.03 3.05 3.05 3.05 3.05 2.94 2.96 2.97 2.97 2.98 2.99 3.01 3.01 3.02 3.04 3.06 3.07 3.09 3.11 3.12 3.14 3.17 3.19 1.76 1.69 1.62 1.57 1.51 1.47 1.43 1.38 1.34 1.30 1.27 1.23 1.19 1.17 1.14 1.12 1.09 1.08 1.05 1.03 1.01 0.99 0.98 0.96 0.94 0.93 0.92 0.91 0.90 0.88 0.87 0.86 0.85 0.85 0.84 0.82 0.81 0.80 0.79 0.79 0.78 0.77 0.77 0.77 0.77 0.77 0.75 0.75 0.75 0.75 0.74 0.74 0.72 0.72 0.72 0.72 0.72 0.71 0.71 0.71 0.70 0.70 0.70 0.70 0.70 0.70 0 4.179000 0.163000 0.038400 4.179000 0.163000 0.038400 0 0 0.55 0.375 1000000.0 1294948707.931251 localhost 1294948707.931251
ODOM 4.179000 0.163000 0.038400 0 0 0 0.000000 pippo 0.000000
NEFF 29.174551 0.000000 pippo 0.000000
ODOM 4.191000 0.163000 0.037852 0 0 0 1294948708.038209 pippo 1294948708.038209
ODOM 4.203000 0.164000 0.038349 0 0 0 1294948708.144974 pippo 1294948708.144974
ODOM 4.213000 0.164000 0.040298 0 0 0 1294948708.251127 pippo 1294948708.251127
ODOM 4.223000 0.165000 0.041327 0 0 0 1294948708.358026 pippo 1294948708.358026
ODOM 4.232000 0.166000 0.039362 0 0 0 1294948708.465014 pippo 1294948708.465014
ODOM 4.242000 0.166000 0.046594 0 0 0 1294948708.572013 pippo 1294948708.572013
ODOM 4.252000 0.166000 0.049916 0 0 0 1294948708.678461 pippo 1294948708.678461
ODOM 4.263000 0.167000 0.036614 0 0 0 1294948708.785013 pippo 1294948708.785013
WEIGHT 40.762402
ROBOTLASER1  0 -1.570796 3.141593 0.017453 81.9 0.01 0 181 0.85 0.83 0.84 0.85 0.85 0.85 0.85 0.85 0.85 0.85 0.86 0.85 0.86 0.85 0.86 0.86 0.86 0.87 0.88 0.88 0.89 0.89 0.90 0.91 0.91 0.92 0.93 0.94 0.95 0.96 0.96 0.96 0.98 0.99 1.00 1.02 1.03 1.04 1.05 1.06 1.08 1.04 1.02 1.01 1.00 1.01 1.03 1.05 1.08 1.07 1.05 1.04 1.02 1.02 1.06 1.07 1.10 1.12 1.16 1.19 3.23 3.22 3.20 3.16 3.13 3.10 3.07 3.05 3.02 3.01 2.98 2.96 2.95 2.93 2.91 2.90 2.88 2.86 2.85 2.84 2.83 2.89 2.91 2.91 2.90 2.89 2.89 2.87 2.87 2.87 2.87 2.87 2.87 2.87 2.87 2.88 2.89 2.82 2.77 2.79 2.79 2.80 2.82 2.83 2.84 2.84 2.85 2.87 2.89 2.90 2.92 2.94 2.96 2.97 3.00 3.02 3.04 3.06 1.60 1.55 1.50 1.44 1.40 1.36 1.32 1.28 1.24 1.22 1.18 1.16 1.13 1.11 1.09 1.07 1.04 1.02 1.02 0.99 0.98 0.95 0.96 0.94 0.92 0.91 0.90 0.89 0.87 0.86 0.86 0.85 0.83 0.82 0.82 0.80 0.80 0.79 0.78 0.77 0.77 0.77 0.77 0.76 0.76 0.75 0.75 0.74 0.74 0.74 0.73 0.73 0.72 0.72 0.72 0.72 0.71 0.71 0.71 0.71 0.71 0.72 0.72 0 4.346000 0.156000 0.061614 4.346000 0.156000 0.061614 0 0 0.55 0.375 1000000.0 1294948708.785013 localhost 1294948708.785013
ODOM 4.346000 0.156000 0.061614 0 0 0 0.000000 pippo 0.000000
NEFF 29.174180 0.000000 pippo 0.000000
ODOM 4.358000 0.156000 0.067078 0 0 0 1294948708.892224 pippo 1294948708.892224
ODOM 4.366000 0.157000 0.065494 0 0 0 1294948708.998130 pippo 1294948708.998130
ODOM 4.376000 0.158000 0.062610 0 0 0 1294948709.104999 pippo 1294948709.104999
ODOM 4.388000 0.159000 0.068660 0 0 0 1294948709.211980 pippo 1294948709.211980
ODOM 4.395000 0.159000 0.067143 0 0 0 1294948709.319115 pippo 1294948709.319115
ODOM 4.404000 0.160000 0.067853 0 0 0 1294948709.425018 pippo 1294948709.425018
ODOM 4.414000 0.161000 0.067508 0 0 0 1294948709.532027 pippo 1294948709.532027
ODOM 4.424000 0.162000 0.067339 0 0 0 1294948709.639050 pippo 1294948709.639050
ODOM 4.434000 0.162000 0.067849 0 0 0 1294948709.746035 pippo 1294948709.746035
ODOM 4.444000 0.164000 0.067316 0 0 0 1294948709.852281 pippo 1294948709.852281
ODOM 4.453000 0.164000 0.067024 0 0 0 1294948709.959109 pippo 1294948709.959109
ODOM 4.464000 0.165000 0.066371 0 0 0 1294948710.066131 pippo 1294948710.066131
ODOM 4.474000 0.166000 0.065600 0 0 0 1294948710.172020 pippo 1294948710.172020
ODOM 4.485000 0.166000 0.063338 0 0 0 1294948710.279008 pippo 1294948710.279008
WEIGHT 80.662756
ROBOTLASER1  0 -1.570796 3.141593 0.017453 81.9 0.01 0 181 0.83 0.84 0.83 0.84 0.83 0.84 0.83 0.84 0.84 0.84 0.84 0.84 0.84 0.85 0.85 0.85 0.86 0.86 0.87 0.87 0.87 0.88 0.89 0.89 0.90 0.90 0.89 0.84 0.82 0.82 0.83 0.83 0.85 0.86 0.86 0.87 0.87 0.83 0.82 0.81 0.82 0.82 0.84 0.85 0.85 0.87 0.89 0.90 0.92 0.93 0.95 0.94 3.22 3.18 3.12 3.10 3.06 3.01 2.98 2.96 2.92 2.89 2.85 2.83 2.79 2.77 2.76 2.73 2.70 2.68 2.67 2.65 2.63 2.61 2.59 2.58 2.58 2.56 2.55 2.53 2.52 2.62 2.61 2.60 2.59 2.59 2.58 2.58 2.58 2.57 2.57 2.57 2.57 2.57 2.58 2.58 2.58 2.58 2.58 2.47 2.49 2.50 2.50 2.51 2.52 2.53 2.54 2.55 2.57 2.58 2.59 2.60 2.62 2.64 2.66 2.67 2.69 2.72 2.74 2.77 2.79 2.82 2.84 2.87 1.35 1.31 1.27 1.23 1.21 1.18 1.15 1.13 1.10 1.08 1.07 1.04 1.02 1.02 0.99 0.98 0.96 0.95 0.94 0.92 0.91 0.89 0.89 0.88 0.86 0.86 0.85 0.84 0.82 0.81 0.81 0.80 0.79 0.79 0.78 0.77 0.77 0.77 0.76 0.76 0.75 0.75 0.75 0.74 0.73 0.73 0.73 0.73 0.72 0.73 0.72 0.72 0.72 0.71 0.71 0.72 0.72 0 4.651000 0.176000 0.038338 4.651000 0.176000 0.038338 0 0 0.55 0.375 1000000.0 1294948710.279008 localhost 1294948710.279008
ODOM 4.651000 0.176000 0.038338 0 0 0 0.000000 pippo 0.000000
NEFF 29.170879 0.000000 pippo 0.000000
ODOM 4.661000 0.176000 0.037913 0 0 0 1294948710.386027 pippo 1294948710.386027
ODOM 4.671000 0.176000 0.042462 0 0 0 1294948710.492248 pippo 1294948710.492248
ODOM 4.681000 0.176000 0.042232 0 0 0 1294948710.599173 pippo 1294948710.599173
ODOM 4.691000 0.176000 0.038757 0 0 0 1294948710.706212 pippo 1294948710.706212
ODOM 4.703000 0.176000 0.041601 0 0 0 1294948710.812037 pippo 1294948710.812037
ODOM 4.712000 0.177000 0.040448 0 0 0 1294948710.919017 pippo 1294948710.919017
ODOM 4.723000 0.177000 0.038320 0 0 0 1294948711.026000 pippo 1294948711.026000
ODOM 4.732000 0.178000 0.042417 0 0 0 1294948711.133018 pippo 1294948711.133018
ODOM 4.743000 0.178000 0.042688 0 0 0 1294948711.238996 pippo 1294948711.238996
ODOM 4.754000 0.179000 0.045093 0 0 0 1294948711.346071 pippo 1294948711.346071
ODOM 4.763000 0.179000 0.043070 0 0 0 1294948711.453223 pippo 1294948711.453223
ODOM 4.774000 0.179000 0.044320 0 0 0 1294948711.559219 pippo 1294948711.559219
WEIGHT 174.155342
