$GNGGA,161722.30,2016.43005685,S,04018.36259379,W,5,07,2.2,2.896,M,-6.067,M,1.3,0000*48
$GNHDT,51.413,T*19
$GNGGA,161722.35,2016.43005959,S,04018.36259422,W,5,07,2.2,2.903,M,-6.067,M,1.4,0000*40
$GNHDT,51.604,T*1D
$GNGGA,161722.40,2016.43005954,S,04018.36259601,W,5,07,2.2,2.901,M,-6.067,M,1.4,0000*4E
$GNHDT,51.457,T*19
$GNGGA,161722.45,2016.43006088,S,04018.36259627,W,5,07,2.2,2.910,M,-6.067,M,1.5,0000*45
$GNHDT,51.417,T*1D
$GNGGA,161722.50,2016.43005742,S,04018.36259563,W,5,07,2.2,2.896,M,-6.067,M,1.5,0000*4F
$GNHDT,51.453,T*1D
$GNGGA,161722.55,2016.43006055,S,04018.36259500,W,5,07,2.2,2.902,M,-6.067,M,1.5,0000*41
$GNHDT,51.515,T*1E
$GNGGA,161722.60,2016.43005869,S,04018.36259294,W,5,07,2.2,2.904,M,-6.067,M,1.6,0000*4C
$GNHDT,51.577,T*1A
$GNGGA,161722.65,2016.43006028,S,04018.36259361,W,5,07,2.2,2.905,M,-6.067,M,1.6,0000*4D
$GNHDT,51.514,T*1F
$GNGGA,161722.70,2016.43006021,S,04018.36259246,W,5,07,2.2,2.894,M,-6.067,M,1.7,0000*4C
$GNHDT,51.661,T*1E
$GNGGA,161722.75,2016.43006009,S,04018.36259572,W,5,07,2.2,2.906,M,-6.067,M,1.8,0000*46
$GNHDT,51.508,T*12
$GNGGA,161722.80,2016.43005856,S,04018.36259393,W,5,07,2.2,2.902,M,-6.067,M,0.8,0000*41
$GNHDT,51.442,T*1D
$GNGGA,161722.85,2016.43006222,S,04018.36259356,W,5,07,2.2,2.916,M,-6.067,M,0.9,0000*43
$GNHDT,51.541,T*1F
$GNGGA,161722.90,2016.43005797,S,04018.36259221,W,5,07,2.2,2.905,M,-6.067,M,0.9,0000*4C
$GNHDT,51.519,T*12
$GNGGA,161722.95,2016.43005856,S,04018.36259174,W,5,07,2.2,2.903,M,-6.067,M,0.9,0000*4E
$GNHDT,51.524,T*1C
$GNGGA,161723.00,2016.43006253,S,04018.36259522,W,5,07,2.2,2.916,M,-6.067,M,1.0,0000*44
$GNHDT,51.563,T*1F
$GNGGA,161723.05,2016.43006253,S,04018.36259681,W,5,07,2.2,2.919,M,-6.067,M,1.0,0000*44
$GNHDT,51.573,T*1E
$GNGGA,161723.10,2016.43006376,S,04018.36259446,W,5,07,2.2,2.928,M,-6.067,M,1.1,0000*4C
$GNHDT,51.484,T*17
$GNGGA,161723.15,2016.43005877,S,04018.36259467,W,5,07,2.2,2.904,M,-6.067,M,1.1,0000*4D
$GNHDT,51.436,T*1E
$GNGGA,161723.20,2016.43006017,S,04018.36259608,W,5,07,2.2,2.908,M,-6.067,M,1.2,0000*42
$GNHDT,51.370,T*1B
$GNGGA,161723.25,2016.43006476,S,04018.36259608,W,5,07,2.2,2.927,M,-6.067,M,1.3,0000*48
$GNHDT,51.597,T*14
$GNGGA,161723.30,2016.43006550,S,04018.36259490,W,5,07,2.2,2.932,M,-6.067,M,1.3,0000*4E
$GNHDT,51.489,T*1A
$GNGGA,161723.35,2016.43006730,S,04018.36259556,W,5,07,2.2,2.935,M,-6.067,M,1.4,0000*44
$GNHDT,51.480,T*13
$GNGGA,161723.40,2016.43006706,S,04018.36259597,W,5,07,2.2,2.932,M,-6.067,M,1.4,0000*49
$GNHDT,51.540,T*1E
$GNGGA,161723.45,2016.43006174,S,04018.36259288,W,5,07,2.2,2.912,M,-6.067,M,1.5,0000*45
$GNHDT,51.583,T*11
$GNGGA,161723.50,2016.43005961,S,04018.36259228,W,5,07,2.2,2.912,M,-6.067,M,1.5,0000*44
$GNHDT,51.486,T*15
$GNGGA,161723.55,2016.43006447,S,04018.36259414,W,5,07,2.2,2.920,M,-6.067,M,1.5,0000*43
$GNHDT,51.547,T*19
$GNGGA,161723.60,2016.43005928,S,04018.36259358,W,5,07,2.2,2.902,M,-6.067,M,1.6,0000*4E
$GNHDT,51.534,T*1D
$GNGGA,161723.65,2016.43005536,S,04018.36259354,W,5,07,2.2,2.899,M,-6.067,M,0.6,0000*46
$GNHDT,51.416,T*1C
$GNGGA,161723.70,2016.43005991,S,04018.36259296,W,5,07,2.2,2.909,M,-6.067,M,0.7,0000*45
$GNHDT,51.458,T*16
$GNGGA,161723.75,2016.43006131,S,04018.36259319,W,5,07,2.2,2.913,M,-6.067,M,0.8,0000*43
$GNHDT,51.660,T*1F
$GNGGA,161723.80,2016.43005991,S,04018.36259152,W,5,07,2.2,2.905,M,-6.067,M,0.8,0000*42
$GNHDT,51.844,T*17
$GNGGA,161723.85,2016.43005648,S,04018.36259503,W,5,07,2.2,2.889,M,-6.067,M,0.9,0000*48
$GNHDT,51.660,T*1F
$GNGGA,161723.90,2016.43005853,S,04018.36259139,W,5,07,2.2,2.902,M,-6.067,M,0.9,0000*47
$GNHDT,51.484,T*17
$GNGGA,161723.95,2016.43006096,S,04018.36258960,W,5,07,2.2,2.912,M,-6.067,M,0.9,0000*44
$GNHDT,51.550,T*1F
$GNGGA,161724.00,2016.43006091,S,04018.36259136,W,5,07,2.2,2.907,M,-6.067,M,1.0,0000*4E
$GNHDT,51.554,T*1B
$GNGGA,161724.05,2016.43005738,S,04018.36259345,W,5,07,2.2,2.903,M,-6.067,M,1.0,0000*4E
$GNHDT,51.173,T*1A
$GNGGA,161724.10,2016.43005583,S,04018.36259294,W,5,07,2.2,2.893,M,-6.067,M,1.1,0000*4C
$GNHDT,51.246,T*1F
$GNGGA,161724.15,2016.43005683,S,04018.36259343,W,5,07,2.2,2.895,M,-6.067,M,1.1,0000*47
$GNHDT,51.326,T*18
$GNGGA,161724.20,2016.43006211,S,04018.36259518,W,5,07,2.2,2.915,M,-6.067,M,1.2,0000*4F
$GNHDT,51.322,T*1C
$GNGGA,161724.25,2016.43006098,S,04018.36259604,W,5,07,2.2,2.910,M,-6.067,M,1.3,0000*43
$GNHDT,51.303,T*1F
$GNGGA,161724.30,2016.43005935,S,04018.36259683,W,5,07,2.2,2.904,M,-6.067,M,1.3,0000*40
$GNHDT,51.156,T*1D
$GNGGA,161724.35,2016.43005839,S,04018.36259518,W,5,07,2.2,2.906,M,-6.067,M,1.4,0000*4C
$GNHDT,51.139,T*14
$GNGGA,161724.40,2016.43005600,S,04018.36259288,W,5,07,2.2,2.893,M,-6.067,M,1.4,0000*49
$GNHDT,51.077,T*1F
$GNGGA,161724.45,2016.43006038,S,04018.36259411,W,5,07,2.2,2.913,M,-6.067,M,1.5,0000*4C
$GNHDT,51.196,T*11
$GNGGA,161724.50,2016.43005854,S,04018.36259412,W,5,07,2.2,2.908,M,-6.067,M,1.5,0000*40
$GNHDT,51.171,T*18
$GNGGA,161724.55,2016.43005829,S,04018.36259344,W,5,07,2.2,2.898,M,-6.067,M,1.5,0000*43
$GNHDT,51.128,T*14
$GNGGA,161724.60,2016.43005629,S,04018.36259324,W,5,07,2.2,2.893,M,-6.067,M,1.6,0000*45
$GNHDT,51.172,T*1B
$GNGGA,161724.65,2016.43005648,S,04018.36259440,W,5,07,2.2,2.894,M,-6.067,M,1.6,0000*45
$GNHDT,50.952,T*10
$GNGGA,161724.70,2016.43005514,S,04018.36259593,W,5,07,2.2,2.899,M,-6.067,M,1.7,0000*48
$GNHDT,50.934,T*10
$GNGGA,161724.75,2016.43005574,S,04018.36259565,W,5,07,2.2,2.897,M,-6.067,M,0.8,0000*42
$GNHDT,51.047,T*1C
$GNGGA,161724.80,2016.43005880,S,04018.36259734,W,5,07,2.2,2.906,M,-6.067,M,0.8,0000*41
$GNHDT,51.151,T*1A
$GNGGA,161724.85,2016.43005878,S,04018.36259535,W,5,07,2.2,2.919,M,-6.067,M,0.9,0000*4F
$GNHDT,51.148,T*12
$GNGGA,161724.90,2016.43005723,S,04018.36259542,W,5,07,2.2,2.911,M,-6.067,M,0.9,0000*42
$GNHDT,51.005,T*1A
$GNGGA,161724.95,2016.43005769,S,04018.36259779,W,5,07,2.2,2.909,M,-6.067,M,0.9,0000*4A
$GNHDT,50.873,T*12
$GNGGA,161725.00,2016.43005754,S,04018.36259708,W,5,07,2.2,2.912,M,-6.067,M,1.0,0000*4D
$GNHDT,51.177,T*1E
$GNGGA,161725.05,2016.43005906,S,04018.36259510,W,5,07,2.2,2.921,M,-6.067,M,1.0,0000*4A
$GNHDT,51.519,T*12
$GNGGA,161725.10,2016.43005682,S,04018.36259292,W,5,07,2.2,2.915,M,-6.067,M,1.1,0000*46
$GNHDT,51.551,T*1E
